country,state,city,station,last_update,latitude,longitude,pollutant_id,pollutant_min,pollutant_max,pollutant_avg
India,Andaman and Nicobar,Sri Vijaya Puram,"Police Line, Sri Vijaya Puram - ANPCC",08-11-2025 15:00:00,11.654054,92.734055,NH3,,,
India,Andaman and Nicobar,Sri Vijaya Puram,"Police Line, Sri Vijaya Puram - ANPCC",08-11-2025 15:00:00,11.654054,92.734055,OZONE,2.0,5.0,4.0
India,Andhra_Pradesh,Amaravati,"Secretariat, Amaravati - APPCB",08-11-2025 15:00:00,16.5150833,80.5181667,PM10,91.0,260.0,124.0
India,Andhra_Pradesh,Amaravati,"Secretariat, Amaravati - APPCB",08-11-2025 15:00:00,16.5150833,80.5181667,NH3,1.0,4.0,3.0
India,Andhra_Pradesh,Amaravati,"Secretariat, Amaravati - APPCB",08-11-2025 15:00:00,16.5150833,80.5181667,SO2,8.0,50.0,14.0
India,Andhra_Pradesh,Amaravati,"Secretariat, Amaravati - APPCB",08-11-2025 15:00:00,16.5150833,80.5181667,CO,18.0,31.0,23.0
India,Andhra_Pradesh,Anantapur,"Gulzarpet, Anantapur - APPCB",08-11-2025 15:00:00,14.675886,77.593027,CO,28.0,75.0,35.0
India,Andhra_Pradesh,Chittoor,"Gangineni Cheruvu, Chittoor - APPCB",08-11-2025 15:00:00,13.20488,79.097889,SO2,,,
India,Bihar,Katihar,"Mirchaibari, Katihar - BSPCB",08-11-2025 15:00:00,25.560083,87.553265,NO2,2.0,5.0,3.0
India,Bihar,Katihar,"Mirchaibari, Katihar - BSPCB",08-11-2025 15:00:00,25.560083,87.553265,CO,64.0,82.0,70.0
India,Bihar,Kishanganj,"SDM Office_Khagra, Kishanganj - BSPCB",08-11-2025 15:00:00,26.0881305,87.93840336,PM2.5,33.0,312.0,221.0
India,Bihar,Kishanganj,"SDM Office_Khagra, Kishanganj - BSPCB",08-11-2025 15:00:00,26.0881305,87.93840336,PM10,29.0,164.0,124.0
India,Bihar,Kishanganj,"SDM Office_Khagra, Kishanganj - BSPCB",08-11-2025 15:00:00,26.0881305,87.93840336,NO2,7.0,8.0,7.0
India,Bihar,Kishanganj,"SDM Office_Khagra, Kishanganj - BSPCB",08-11-2025 15:00:00,26.0881305,87.93840336,OZONE,16.0,19.0,17.0
India,Bihar,Manguraha,"Forest Rest House, Manguraha - BSPCB",08-11-2025 15:00:00,27.308328,84.531742,SO2,16.0,17.0,17.0
India,Bihar,Motihari,"Gandak Colony, Motihari - BSPCB",08-11-2025 15:00:00,26.63086,84.90051,OZONE,2.0,4.0,2.0
India,Andhra_Pradesh,Kadapa,"Yerramukkapalli, Kadapa - APPCB",08-11-2025 15:00:00,14.465052,78.824187,NO2,,,
India,Andhra_Pradesh,Kadapa,"Yerramukkapalli, Kadapa - APPCB",08-11-2025 15:00:00,14.465052,78.824187,SO2,,,
India,Andhra_Pradesh,Kadapa,"Yerramukkapalli, Kadapa - APPCB",08-11-2025 15:00:00,14.465052,78.824187,CO,,,
India,Andhra_Pradesh,Rajamahendravaram,"Anand Kala Kshetram, Rajamahendravaram - APPCB",08-11-2025 15:00:00,16.9872867,81.7363176,PM2.5,50.0,136.0,89.0
India,Andhra_Pradesh,Rajamahendravaram,"Anand Kala Kshetram, Rajamahendravaram - APPCB",08-11-2025 15:00:00,16.9872867,81.7363176,NH3,3.0,4.0,3.0
India,Andhra_Pradesh,Rajamahendravaram,"Anand Kala Kshetram, Rajamahendravaram - APPCB",08-11-2025 15:00:00,16.9872867,81.7363176,SO2,4.0,44.0,13.0
India,Andhra_Pradesh,Tirumala,"Toll Gate, Tirumala - APPCB",08-11-2025 15:00:00,13.67,79.35,CO,19.0,62.0,23.0
India,Andhra_Pradesh,Tirupati,"Vaikuntapuram, Tirupati - APPCB",08-11-2025 15:00:00,13.615387,79.40923,CO,30.0,45.0,37.0
India,Bihar,Gaya,"Collectorate, Gaya - BSPCB",08-11-2025 15:00:00,24.7955,84.9994,OZONE,19.0,20.0,20.0
India,Bihar,Gaya,"Kareemganj, Gaya - BSPCB",08-11-2025 15:00:00,24.792403,84.992416,PM10,124.0,356.0,195.0
India,Bihar,Gaya,"Kareemganj, Gaya - BSPCB",08-11-2025 15:00:00,24.792403,84.992416,CO,40.0,44.0,42.0
India,Bihar,Gaya,"SFTI Kusdihra, Gaya - BSPCB",08-11-2025 15:00:00,24.762518,84.982348,NH3,2.0,4.0,3.0
India,Bihar,Hajipur,"Industrial Area, Hajipur - BSPCB",08-11-2025 15:00:00,25.697189,85.2459,PM2.5,80.0,165.0,111.0
India,Bihar,Hajipur,"Industrial Area, Hajipur - BSPCB",08-11-2025 15:00:00,25.697189,85.2459,SO2,3.0,5.0,4.0
India,Bihar,Hajipur,"Industrial Area, Hajipur - BSPCB",08-11-2025 15:00:00,25.697189,85.2459,CO,11.0,49.0,29.0
India,Bihar,Bhagalpur,"DM Office_Kachari Chowk, Bhagalpur - BSPCB",08-11-2025 15:00:00,25.251013,86.989001,SO2,10.0,68.0,45.0
India,Bihar,Bhagalpur,"Mayaganj, Bhagalpur - BSPCB",08-11-2025 15:00:00,25.265194,87.012947,OZONE,24.0,129.0,82.0
India,Bihar,Bihar Sharif,"D M Colony, Bihar Sharif - BSPCB",08-11-2025 15:00:00,25.204762,85.51496,NH3,3.0,5.0,4.0
India,Bihar,Buxar,"Charitra Van, Buxar - BSPCB",08-11-2025 15:00:00,25.56752,83.966379,NH3,3.0,3.0,3.0
India,Bihar,Chhapra,"Darshan Nagar, Chhapra - BSPCB",08-11-2025 15:00:00,25.7808257,84.7446768,PM2.5,5.0,140.0,28.0
India,Assam,Nalbari,"Bata Chowk, Nalbari - PCBA",08-11-2025 15:00:00,26.446912,91.439057,SO2,4.0,8.0,8.0
India,Assam,Silchar,"Tarapur, Silchar - PCBA",08-11-2025 15:00:00,24.82827,92.79525,NH3,1.0,1.0,1.0
India,Assam,Silchar,"Tarapur, Silchar - PCBA",08-11-2025 15:00:00,24.82827,92.79525,CO,26.0,70.0,49.0
India,Assam,Sivasagar,"Girls College, Sivasagar - PCBA",08-11-2025 15:00:00,26.987634,94.636574,PM10,34.0,82.0,62.0
India,Bihar,Araria,"Kharahiya Basti, Araria - BSPCB",08-11-2025 15:00:00,26.146529,87.454184,NO2,1.0,52.0,21.0
India,Bihar,Munger,"Town Hall, Munger - BSPCB",08-11-2025 15:00:00,25.376776,86.471523,NO2,4.0,5.0,5.0
India,Bihar,Munger,"Town Hall, Munger - BSPCB",08-11-2025 15:00:00,25.376776,86.471523,NH3,5.0,8.0,6.0
India,Bihar,Munger,"Town Hall, Munger - BSPCB",08-11-2025 15:00:00,25.376776,86.471523,OZONE,11.0,32.0,26.0
India,Bihar,Muzaffarpur,"MIT-Daudpur Kothi, Muzaffarpur - BSPCB",08-11-2025 15:00:00,26.1403345,85.3650192,PM10,52.0,71.0,63.0
India,Bihar,Muzaffarpur,"MIT-Daudpur Kothi, Muzaffarpur - BSPCB",08-11-2025 15:00:00,26.1403345,85.3650192,SO2,13.0,22.0,14.0
India,Bihar,Muzaffarpur,"MIT-Daudpur Kothi, Muzaffarpur - BSPCB",08-11-2025 15:00:00,26.1403345,85.3650192,CO,50.0,64.0,57.0
India,Bihar,Aurangabad,"Gurdeo Nagar, Aurangabad - BSPCB",08-11-2025 15:00:00,24.75746,84.366208,NO2,7.0,8.0,8.0
India,Bihar,Begusarai,"Lohiyanagar, Begusarai - BSPCB",08-11-2025 15:00:00,25.42742023,86.13886079,NO2,16.0,23.0,19.0
India,Bihar,Begusarai,"Lohiyanagar, Begusarai - BSPCB",08-11-2025 15:00:00,25.42742023,86.13886079,OZONE,5.0,54.0,30.0
India,Bihar,Bettiah,"Kamalnath Nagar, Bettiah - BSPCB",08-11-2025 15:00:00,26.80365,84.51954,CO,60.0,106.0,83.0
India,Bihar,Bettiah,"Kamalnath Nagar, Bettiah - BSPCB",08-11-2025 15:00:00,26.80365,84.51954,OZONE,22.0,24.0,23.0
India,Andhra_Pradesh,Vijayawada,"Rajiv Gandhi Park, Vijayawada - APPCB",08-11-2025 15:00:00,16.509717,80.612222,NH3,3.0,4.0,4.0
India,Andhra_Pradesh,Vijayawada,"Rajiv Nagar, Vijayawada - APPCB",08-11-2025 15:00:00,16.554731,80.64911,CO,27.0,48.0,36.0
India,Arunachal_Pradesh,Naharlagun,"Naharlagun, Naharlagun - APSPCB",08-11-2025 15:00:00,27.103358,93.679645,PM10,16.0,137.0,65.0
India,Arunachal_Pradesh,Naharlagun,"Naharlagun, Naharlagun - APSPCB",08-11-2025 15:00:00,27.103358,93.679645,SO2,8.0,8.0,8.0
India,Assam,Byrnihat,"Central Academy for SFS, Byrnihat - PCBA",08-11-2025 15:00:00,26.071318,91.87488,PM10,,,
India,Assam,Byrnihat,"Central Academy for SFS, Byrnihat - PCBA",08-11-2025 15:00:00,26.071318,91.87488,CO,26.0,58.0,50.0
India,Assam,Guwahati,"Pan Bazaar, Guwahati - PCBA",08-11-2025 15:00:00,26.1875,91.744194,OZONE,18.0,18.0,18.0
India,Assam,Guwahati,"Railway Colony, Guwahati - PCBA",08-11-2025 15:00:00,26.181742,91.78063,PM2.5,27.0,158.0,72.0
India,Chhattisgarh,Chhal,"Nawapara SECL Colony, Chhal - CECB",08-11-2025 15:00:00,22.118125,83.140608,NO2,11.0,22.0,14.0
India,Chhattisgarh,Chhal,"Nawapara SECL Colony, Chhal - CECB",08-11-2025 15:00:00,22.118125,83.140608,NH3,5.0,5.0,5.0
India,Chhattisgarh,Chhal,"Nawapara SECL Colony, Chhal - CECB",08-11-2025 15:00:00,22.118125,83.140608,SO2,6.0,53.0,19.0
India,Chhattisgarh,Korba,"Rampur, Korba - CECB",08-11-2025 15:00:00,22.368195,82.746431,PM10,45.0,69.0,53.0
India,Chhattisgarh,Korba,"Rampur, Korba - CECB",08-11-2025 15:00:00,22.368195,82.746431,SO2,6.0,19.0,8.0
India,Chhattisgarh,Korba,"Rampur, Korba - CECB",08-11-2025 15:00:00,22.368195,82.746431,OZONE,2.0,21.0,6.0
India,Chhattisgarh,Korba,"Urja Nagar, Korba - CECB",08-11-2025 15:00:00,22.348441,82.549611,NO2,26.0,41.0,32.0
India,Chhattisgarh,Kunjemura,"OP Jindal School, Kunjemura - CECB",08-11-2025 15:00:00,22.12665,83.483212,PM10,32.0,105.0,67.0
India,Chhattisgarh,Kunjemura,"OP Jindal School, Kunjemura - CECB",08-11-2025 15:00:00,22.12665,83.483212,SO2,2.0,13.0,7.0
India,Chhattisgarh,Kunjemura,"OP Jindal School, Kunjemura - CECB",08-11-2025 15:00:00,22.12665,83.483212,CO,4.0,20.0,12.0
India,Chhattisgarh,Raipur,"Siltara Phase-II, Raipur - CECB",08-11-2025 15:00:00,21.371751,81.664929,NO2,6.0,40.0,12.0
India,Chhattisgarh,Raipur,"Siltara Phase-II, Raipur - CECB",08-11-2025 15:00:00,21.371751,81.664929,SO2,3.0,6.0,4.0
India,Chhattisgarh,Tumidih,"OP Jindal Industrial Park, Tumidih - CECB",08-11-2025 15:00:00,22.06631475,83.33820077,PM10,42.0,106.0,73.0
India,Chhattisgarh,Tumidih,"OP Jindal Industrial Park, Tumidih - CECB",08-11-2025 15:00:00,22.06631475,83.33820077,OZONE,9.0,105.0,69.0
India,Delhi,Delhi,"Alipur, Delhi - DPCC",08-11-2025 15:00:00,28.815329,77.15301,PM10,139.0,500.0,389.0
India,Delhi,Delhi,"Alipur, Delhi - DPCC",08-11-2025 15:00:00,28.815329,77.15301,NO2,34.0,146.0,81.0
India,Delhi,Delhi,"Alipur, Delhi - DPCC",08-11-2025 15:00:00,28.815329,77.15301,CO,44.0,112.0,87.0
India,Delhi,Delhi,"Anand Vihar, Delhi - DPCC",08-11-2025 15:00:00,28.647622,77.315809,CO,101.0,136.0,119.0
India,Delhi,Delhi,"CRRI Mathura Road, Delhi - IMD",08-11-2025 15:00:00,28.5512005,77.2735737,CO,14.0,106.0,44.0
India,Delhi,Delhi,"Chandni Chowk, Delhi - IITM",08-11-2025 15:00:00,28.656756,77.227234,NH3,7.0,20.0,13.0
India,Delhi,Delhi,"Chandni Chowk, Delhi - IITM",08-11-2025 15:00:00,28.656756,77.227234,OZONE,1.0,90.0,51.0
India,Delhi,Delhi,"DTU, Delhi - CPCB",08-11-2025 15:00:00,28.7500499,77.1112615,PM10,147.0,443.0,304.0
India,Delhi,Delhi,"DTU, Delhi - CPCB",08-11-2025 15:00:00,28.7500499,77.1112615,CO,21.0,77.0,67.0
India,Delhi,Delhi,"Dr. Karni Singh Shooting Range, Delhi - DPCC",08-11-2025 15:00:00,28.498571,77.26484,PM2.5,203.0,500.0,367.0
India,Delhi,Delhi,"Dr. Karni Singh Shooting Range, Delhi - DPCC",08-11-2025 15:00:00,28.498571,77.26484,NH3,6.0,9.0,8.0
India,Delhi,Delhi,"Dr. Karni Singh Shooting Range, Delhi - DPCC",08-11-2025 15:00:00,28.498571,77.26484,SO2,20.0,43.0,29.0
India,Chhattisgarh,Milupara,"Govt. Higher Secondary School, Milupara - CECB",08-11-2025 15:00:00,22.1910172,83.5197009,PM2.5,28.0,57.0,42.0
India,Chhattisgarh,Milupara,"Govt. Higher Secondary School, Milupara - CECB",08-11-2025 15:00:00,22.1910172,83.5197009,PM10,32.0,91.0,61.0
India,Chhattisgarh,Milupara,"Govt. Higher Secondary School, Milupara - CECB",08-11-2025 15:00:00,22.1910172,83.5197009,SO2,13.0,17.0,15.0
India,Chhattisgarh,Raipur,"AIIMS, Raipur - CECB",08-11-2025 15:00:00,21.258815,81.578979,PM2.5,21.0,74.0,42.0
India,Chhattisgarh,Raipur,"AIIMS, Raipur - CECB",08-11-2025 15:00:00,21.258815,81.578979,PM10,34.0,165.0,79.0
India,Chhattisgarh,Raipur,"Krishak Nagar, Raipur - CECB",08-11-2025 15:00:00,21.237755,81.705301,PM10,53.0,107.0,77.0
India,Chhattisgarh,Raipur,"Krishak Nagar, Raipur - CECB",08-11-2025 15:00:00,21.237755,81.705301,NO2,12.0,30.0,16.0
India,Chhattisgarh,Raipur,"Krishak Nagar, Raipur - CECB",08-11-2025 15:00:00,21.237755,81.705301,OZONE,2.0,50.0,20.0
India,Delhi,Delhi,"Aya Nagar, Delhi - IMD",08-11-2025 15:00:00,28.4706914,77.1099364,OZONE,9.0,161.0,161.0
India,Delhi,Delhi,"Bawana, Delhi - DPCC",08-11-2025 15:00:00,28.7762,77.051074,PM2.5,257.0,500.0,412.0
India,Delhi,Delhi,"Bawana, Delhi - DPCC",08-11-2025 15:00:00,28.7762,77.051074,SO2,10.0,42.0,23.0
India,Delhi,Delhi,"Burari Crossing, Delhi - IMD",08-11-2025 15:00:00,28.7256504,77.2011573,CO,13.0,102.0,61.0
India,Delhi,Delhi,"CRRI Mathura Road, Delhi - IMD",08-11-2025 15:00:00,28.5512005,77.2735737,PM2.5,232.0,500.0,381.0
India,Bihar,Patna,"Govt. High School Shikarpur, Patna - BSPCB",08-11-2025 15:00:00,25.592539,85.227158,NH3,4.0,5.0,5.0
India,Bihar,Patna,"Muradpur, Patna - BSPCB",08-11-2025 15:00:00,25.619651,85.147382,NH3,4.0,5.0,5.0
India,Bihar,Patna,"Muradpur, Patna - BSPCB",08-11-2025 15:00:00,25.619651,85.147382,SO2,7.0,9.0,9.0
India,Bihar,Patna,"Rajbansi Nagar, Patna - BSPCB",08-11-2025 15:00:00,25.599486,85.113666,PM2.5,86.0,128.0,104.0
India,Bihar,Patna,"Rajbansi Nagar, Patna - BSPCB",08-11-2025 15:00:00,25.599486,85.113666,PM10,97.0,130.0,113.0
India,Bihar,Patna,"Rajbansi Nagar, Patna - BSPCB",08-11-2025 15:00:00,25.599486,85.113666,SO2,6.0,8.0,7.0
India,Chhattisgarh,Bhilai,"32Bungalows, Bhilai - CECB",08-11-2025 15:00:00,21.194815,81.31477,PM10,29.0,71.0,46.0
India,Chhattisgarh,Bhilai,"Civic Center, Bhilai - Bhilai Steel Plant",08-11-2025 15:00:00,21.185571,81.343175,CO,21.0,22.0,22.0
India,Chhattisgarh,Bhilai,"Civic Center, Bhilai - Bhilai Steel Plant",08-11-2025 15:00:00,21.185571,81.343175,OZONE,8.0,13.0,10.0
India,Chhattisgarh,Bilaspur,"Mangala, Bilaspur - NTPC",08-11-2025 15:00:00,22.08815,82.13737,PM2.5,30.0,71.0,49.0
India,Chhattisgarh,Bilaspur,"Mangala, Bilaspur - NTPC",08-11-2025 15:00:00,22.08815,82.13737,NO2,13.0,26.0,17.0
India,Bihar,Purnia,"Mariam Nagar, Purnia - BSPCB",08-11-2025 15:00:00,25.366336,87.117468,PM2.5,52.0,100.0,81.0
India,Bihar,Purnia,"Mariam Nagar, Purnia - BSPCB",08-11-2025 15:00:00,25.366336,87.117468,OZONE,25.0,56.0,39.0
India,Bihar,Rajgir,"Dangi Tola, Rajgir - BSPCB",08-11-2025 15:00:00,25.0328,85.41948,PM10,38.0,83.0,61.0
India,Bihar,Rajgir,"Dangi Tola, Rajgir - BSPCB",08-11-2025 15:00:00,25.0328,85.41948,SO2,18.0,24.0,21.0
India,Bihar,Sasaram,"Dada Peer, Sasaram - BSPCB",08-11-2025 15:00:00,24.952822,84.002396,NH3,3.0,39.0,5.0
India,Bihar,Siwan,"Chitragupta Nagar, Siwan - BSPCB",08-11-2025 15:00:00,26.2271665,84.3570427,NO2,1.0,1.0,1.0
India,Gujarat,Ahmedabad,"Maninagar, Ahmedabad - GPCB",08-11-2025 15:00:00,23.002657,72.591912,PM10,35.0,218.0,130.0
India,Gujarat,Ahmedabad,"Maninagar, Ahmedabad - GPCB",08-11-2025 15:00:00,23.002657,72.591912,SO2,33.0,47.0,41.0
India,Gujarat,Ahmedabad,"Raikhad, Ahmedabad - IITM",08-11-2025 15:00:00,23.020509,72.579261,SO2,,,
India,Gujarat,Ahmedabad,"Rakhial, Ahmedabad - IITM",08-11-2025 15:00:00,23.016834,72.625775,NH3,2.0,17.0,4.0
India,Gujarat,Ahmedabad,"Rakhial, Ahmedabad - IITM",08-11-2025 15:00:00,23.016834,72.625775,OZONE,2.0,77.0,32.0
India,Gujarat,Ahmedabad,"SAC ISRO Bopal, Ahmedabad - IITM",08-11-2025 15:00:00,23.041137,72.456691,PM10,18.0,500.0,166.0
India,Gujarat,Ahmedabad,"SAC ISRO Bopal, Ahmedabad - IITM",08-11-2025 15:00:00,23.041137,72.456691,NH3,2.0,3.0,3.0
India,Gujarat,Ahmedabad,"SAC ISRO Bopal, Ahmedabad - IITM",08-11-2025 15:00:00,23.041137,72.456691,OZONE,2.0,57.0,22.0
India,Delhi,Delhi,"IGI Airport (T3), Delhi - IMD",08-11-2025 15:00:00,28.5627763,77.1180053,PM10,150.0,442.0,267.0
India,Delhi,Delhi,"IGI Airport (T3), Delhi - IMD",08-11-2025 15:00:00,28.5627763,77.1180053,OZONE,1.0,3.0,3.0
India,Delhi,Delhi,"IHBAS, Dilshad Garden, Delhi - CPCB",08-11-2025 15:00:00,28.6811736,77.3025234,NO2,51.0,56.0,53.0
India,Delhi,Delhi,"ITO, Delhi - CPCB",08-11-2025 15:00:00,28.628624,77.24106,PM2.5,191.0,500.0,389.0
India,Delhi,Delhi,"ITO, Delhi - CPCB",08-11-2025 15:00:00,28.628624,77.24106,NO2,28.0,99.0,61.0
India,Delhi,Delhi,"ITO, Delhi - CPCB",08-11-2025 15:00:00,28.628624,77.24106,NH3,2.0,4.0,3.0
India,Delhi,Delhi,"Jahangirpuri, Delhi - DPCC",08-11-2025 15:00:00,28.73282,77.170633,NO2,66.0,151.0,108.0
India,Delhi,Delhi,"Vivek Vihar, Delhi - DPCC",08-11-2025 15:00:00,28.672342,77.31526,NH3,10.0,12.0,11.0
India,Delhi,Delhi,"Wazirpur, Delhi - DPCC",08-11-2025 15:00:00,28.699793,77.165453,SO2,12.0,40.0,20.0
India,Gujarat,Ahmedabad,"Chandkheda, Ahmedabad - IITM",08-11-2025 15:00:00,23.107969,72.574648,NO2,10.0,116.0,56.0
India,Gujarat,Ahmedabad,"Chandkheda, Ahmedabad - IITM",08-11-2025 15:00:00,23.107969,72.574648,SO2,5.0,10.0,7.0
India,Gujarat,Ahmedabad,"Gyaspur, Ahmedabad - IITM",08-11-2025 15:00:00,22.977134,72.553024,NH3,4.0,59.0,26.0
India,Gujarat,Ahmedabad,"Maninagar, Ahmedabad - GPCB",08-11-2025 15:00:00,23.002657,72.591912,PM2.5,54.0,348.0,218.0
India,Delhi,Delhi,"Jawaharlal Nehru Stadium, Delhi - DPCC",08-11-2025 15:00:00,28.58028,77.233829,NO2,34.0,164.0,99.0
India,Delhi,Delhi,"Lodhi Road, Delhi - IITM",08-11-2025 15:00:00,28.588333,77.221667,NO2,42.0,48.0,44.0
India,Delhi,Delhi,"Major Dhyan Chand National Stadium, Delhi - DPCC",08-11-2025 15:00:00,28.611281,77.237738,NO2,35.0,159.0,93.0
India,Delhi,Delhi,"Major Dhyan Chand National Stadium, Delhi - DPCC",08-11-2025 15:00:00,28.611281,77.237738,NH3,13.0,18.0,16.0
India,Delhi,Delhi,"Major Dhyan Chand National Stadium, Delhi - DPCC",08-11-2025 15:00:00,28.611281,77.237738,SO2,23.0,53.0,33.0
India,Delhi,Delhi,"Major Dhyan Chand National Stadium, Delhi - DPCC",08-11-2025 15:00:00,28.611281,77.237738,CO,30.0,110.0,54.0
India,Delhi,Delhi,"Mandir Marg, Delhi - DPCC",08-11-2025 15:00:00,28.636429,77.201067,NO2,23.0,68.0,40.0
India,Delhi,Delhi,"Mundka, Delhi - DPCC",08-11-2025 15:00:00,28.684678,77.076574,PM10,141.0,500.0,379.0
India,Delhi,Delhi,"Mundka, Delhi - DPCC",08-11-2025 15:00:00,28.684678,77.076574,NH3,6.0,15.0,11.0
India,Delhi,Delhi,"NSIT Dwarka, Delhi - CPCB",08-11-2025 15:00:00,28.60909,77.0325413,PM2.5,37.0,384.0,146.0
India,Delhi,Delhi,"NSIT Dwarka, Delhi - CPCB",08-11-2025 15:00:00,28.60909,77.0325413,PM10,185.0,220.0,201.0
India,Delhi,Delhi,"NSIT Dwarka, Delhi - CPCB",08-11-2025 15:00:00,28.60909,77.0325413,NH3,5.0,9.0,7.0
India,Delhi,Delhi,"NSIT Dwarka, Delhi - CPCB",08-11-2025 15:00:00,28.60909,77.0325413,CO,22.0,64.0,34.0
India,Delhi,Delhi,"North Campus, DU, Delhi - IMD",08-11-2025 15:00:00,28.6573814,77.1585447,PM2.5,175.0,500.0,375.0
India,Delhi,Delhi,"Okhla Phase-2, Delhi - DPCC",08-11-2025 15:00:00,28.530785,77.271255,NO2,74.0,193.0,130.0
India,Delhi,Delhi,"Patparganj, Delhi - DPCC",08-11-2025 15:00:00,28.623763,77.287209,CO,54.0,124.0,91.0
India,Delhi,Delhi,"Punjabi Bagh, Delhi - DPCC",08-11-2025 15:00:00,28.674045,77.131023,PM10,157.0,477.0,350.0
India,Delhi,Delhi,"Rohini, Delhi - DPCC",08-11-2025 15:00:00,28.732528,77.11992,CO,13.0,55.0,29.0
India,Delhi,Delhi,"Shadipur, Delhi - CPCB",08-11-2025 15:00:00,28.6514781,77.1473105,SO2,1.0,29.0,10.0
India,Delhi,Delhi,"Sonia Vihar, Delhi - DPCC",08-11-2025 15:00:00,28.710508,77.249485,CO,56.0,122.0,111.0
India,Delhi,Delhi,"Sri Aurobindo Marg, Delhi - DPCC",08-11-2025 15:00:00,28.531346,77.190156,NO2,25.0,76.0,48.0
India,Delhi,Delhi,"Pusa, Delhi - DPCC",08-11-2025 15:00:00,28.639652,77.146275,NH3,2.0,16.0,10.0
India,Delhi,Delhi,"Pusa, Delhi - IMD",08-11-2025 15:00:00,28.63611,77.173332,PM2.5,199.0,472.0,380.0
India,Delhi,Delhi,"Pusa, Delhi - IMD",08-11-2025 15:00:00,28.63611,77.173332,NO2,9.0,114.0,57.0
India,Delhi,Delhi,"R K Puram, Delhi - DPCC",08-11-2025 15:00:00,28.563262,77.186937,NO2,37.0,155.0,99.0
India,Gujarat,Ahmedabad,"SAC ISRO Satellite, Ahmedabad - IITM",08-11-2025 15:00:00,23.023389,72.515201,CO,2.0,144.0,28.0
India,Gujarat,Ahmedabad,"SVPI Airport Hansol, Ahmedabad - IITM",08-11-2025 15:00:00,23.076793,72.627874,PM10,55.0,444.0,210.0
India,Gujarat,Ahmedabad,"SVPI Airport Hansol, Ahmedabad - IITM",08-11-2025 15:00:00,23.076793,72.627874,CO,13.0,117.0,32.0
India,Gujarat,Vatva,"Phase-4 GIDC, Vatva - GPCB",08-11-2025 15:00:00,22.969611,72.6435,NH3,3.0,4.0,3.0
India,Gujarat,Vatva,"Phase-4 GIDC, Vatva - GPCB",08-11-2025 15:00:00,22.969611,72.6435,SO2,21.0,36.0,29.0
India,Haryana,Ambala,"Patti Mehar, Ambala - HSPCB",08-11-2025 15:00:00,30.379589,76.778328,SO2,31.0,32.0,31.0
India,Haryana,Bahadurgarh,"Arya Nagar, Bahadurgarh - HSPCB",08-11-2025 15:00:00,28.6701,76.9254,SO2,7.0,7.0,7.0
India,Haryana,Bahadurgarh,"Arya Nagar, Bahadurgarh - HSPCB",08-11-2025 15:00:00,28.6701,76.9254,OZONE,15.0,19.0,17.0
India,Haryana,Ballabgarh,"Nathu Colony, Ballabgarh - HSPCB",08-11-2025 15:00:00,28.3419248,77.319699,PM2.5,108.0,157.0,128.0
India,Haryana,Ballabgarh,"Nathu Colony, Ballabgarh - HSPCB",08-11-2025 15:00:00,28.3419248,77.319699,SO2,7.0,11.0,10.0
India,Haryana,Ballabgarh,"Nathu Colony, Ballabgarh - HSPCB",08-11-2025 15:00:00,28.3419248,77.319699,CO,48.0,52.0,50.0
India,Haryana,Ballabgarh,"Nathu Colony, Ballabgarh - HSPCB",08-11-2025 15:00:00,28.3419248,77.319699,OZONE,15.0,15.0,15.0
India,Haryana,Bhiwani,"H.B. Colony, Bhiwani - HSPCB",08-11-2025 15:00:00,28.806223,76.141105,PM2.5,211.0,313.0,246.0
India,Haryana,Faridabad,"Sector 30, Faridabad - HSPCB",08-11-2025 15:00:00,28.4417,77.3217,PM2.5,335.0,342.0,336.0
India,Haryana,Faridabad,"Sector 30, Faridabad - HSPCB",08-11-2025 15:00:00,28.4417,77.3217,OZONE,17.0,19.0,18.0
India,Haryana,Fatehabad,"Huda Sector, Fatehabad - HSPCB",08-11-2025 15:00:00,29.503664,75.467934,NH3,13.0,14.0,14.0
India,Haryana,Fatehabad,"Huda Sector, Fatehabad - HSPCB",08-11-2025 15:00:00,29.503664,75.467934,SO2,1.0,25.0,12.0
India,Haryana,Fatehabad,"Huda Sector, Fatehabad - HSPCB",08-11-2025 15:00:00,29.503664,75.467934,OZONE,11.0,21.0,14.0
India,Haryana,Gurugram,"NISE Gwal Pahari, Gurugram - IMD",08-11-2025 15:00:00,28.422681,77.148944,PM2.5,3.0,500.0,217.0
India,Haryana,Gurugram,"NISE Gwal Pahari, Gurugram - IMD",08-11-2025 15:00:00,28.422681,77.148944,CO,19.0,65.0,51.0
India,Haryana,Gurugram,"Sector-51, Gurugram - HSPCB",08-11-2025 15:00:00,28.4227,77.0667,NH3,6.0,10.0,8.0
India,Haryana,Gurugram,"Sector-51, Gurugram - HSPCB",08-11-2025 15:00:00,28.4227,77.0667,OZONE,6.0,23.0,14.0
India,Haryana,Gurugram,"Teri Gram, Gurugram - HSPCB",08-11-2025 15:00:00,28.4275,77.1465,PM2.5,73.0,304.0,162.0
India,Haryana,Panchkula,"Sector-6, Panchkula - HSPCB ",08-11-2025 15:00:00,30.7057778,76.8531805555555,OZONE,17.0,32.0,26.0
India,Haryana,Panipat,"Sector-18, Panipat - HSPCB",08-11-2025 15:00:00,29.432304,76.972765,CO,16.0,26.0,24.0
India,Haryana,Panipat,"Sector-18, Panipat - HSPCB",08-11-2025 15:00:00,29.432304,76.972765,OZONE,30.0,30.0,30.0
India,Haryana,Rohtak,"MD University, Rohtak - HSPCB",08-11-2025 15:00:00,28.52123,76.37138,PM2.5,245.0,466.0,372.0
India,Haryana,Sirsa,"F-Block, Sirsa - HSPCB",08-11-2025 15:00:00,29.5364,75.0158,PM2.5,93.0,370.0,274.0
India,Haryana,Sirsa,"F-Block, Sirsa - HSPCB",08-11-2025 15:00:00,29.5364,75.0158,NO2,7.0,31.0,18.0
India,Haryana,Sirsa,"F-Block, Sirsa - HSPCB",08-11-2025 15:00:00,29.5364,75.0158,NH3,10.0,14.0,13.0
India,Haryana,Karnal,"Sector-12, Karnal - HSPCB",08-11-2025 15:00:00,29.6953,77.0027,CO,35.0,61.0,48.0
India,Haryana,Kurukshetra,"Sector-7, Kurukshetra - HSPCB",08-11-2025 15:00:00,29.966942,76.875879,PM10,76.0,304.0,217.0
India,Haryana,Mandikhera,"General Hospital, Mandikhera - HSPCB",08-11-2025 15:00:00,27.9002,76.9938,CO,40.0,102.0,84.0
India,Haryana,Manesar,"Sector-2 IMT, Manesar - HSPCB",08-11-2025 15:00:00,28.360699,76.93609,PM2.5,164.0,347.0,286.0
India,Haryana,Manesar,"Sector-2 IMT, Manesar - HSPCB",08-11-2025 15:00:00,28.360699,76.93609,PM10,114.0,229.0,166.0
India,Haryana,Dharuhera,"Municipal Corporation Office, Dharuhera -  HSPCB",08-11-2025 15:00:00,28.2068,76.7997,PM2.5,60.0,263.0,151.0
India,Haryana,Faridabad,"New Industrial Town, Faridabad - HSPCB",08-11-2025 15:00:00,28.39072,77.30059,NO2,24.0,26.0,25.0
India,Haryana,Faridabad,"New Industrial Town, Faridabad - HSPCB",08-11-2025 15:00:00,28.39072,77.30059,NH3,11.0,12.0,11.0
India,Haryana,Faridabad,"Sector 11, Faridabad - HSPCB",08-11-2025 15:00:00,28.376058,77.315741,PM2.5,80.0,322.0,220.0
India,Haryana,Faridabad,"Sector 11, Faridabad - HSPCB",08-11-2025 15:00:00,28.376058,77.315741,PM10,86.0,179.0,145.0
India,Haryana,Gurugram,"Teri Gram, Gurugram - HSPCB",08-11-2025 15:00:00,28.4275,77.1465,CO,15.0,77.0,38.0
India,Haryana,Gurugram,"Vikas Sadan, Gurugram - HSPCB",08-11-2025 15:00:00,28.4501238,77.0263051,PM10,100.0,172.0,137.0
India,Haryana,Gurugram,"Vikas Sadan, Gurugram - HSPCB",08-11-2025 15:00:00,28.4501238,77.0263051,NO2,9.0,45.0,26.0
India,Haryana,Gurugram,"Vikas Sadan, Gurugram - HSPCB",08-11-2025 15:00:00,28.4501238,77.0263051,SO2,2.0,8.0,5.0
India,Haryana,Hisar,"Urban Estate-II, Hisar - HSPCB",08-11-2025 15:00:00,29.14056,75.744941,OZONE,46.0,117.0,82.0
India,Haryana,Narnaul,"Shastri Nagar, Narnaul - HSPCB",08-11-2025 15:00:00,28.060249,76.113115,OZONE,16.0,168.0,56.0
India,Haryana,Palwal,"Shyam Nagar, Palwal - HSPCB",08-11-2025 15:00:00,28.1485564,77.3320667,NO2,23.0,24.0,24.0
India,Haryana,Palwal,"Shyam Nagar, Palwal - HSPCB",08-11-2025 15:00:00,28.1485564,77.3320667,SO2,12.0,13.0,12.0
India,Haryana,Panchkula,"Sector-6, Panchkula - HSPCB ",08-11-2025 15:00:00,30.7057778,76.8531805555555,PM2.5,52.0,305.0,157.0
India,Haryana,Bhiwani,"H.B. Colony, Bhiwani - HSPCB",08-11-2025 15:00:00,28.806223,76.141105,NH3,1.0,8.0,7.0
India,Haryana,Charkhi Dadri,"Mini Secretariat, Charkhi Dadri - HSPCB",08-11-2025 15:00:00,28.593883,76.270653,PM10,99.0,199.0,167.0
India,Haryana,Charkhi Dadri,"Mini Secretariat, Charkhi Dadri - HSPCB",08-11-2025 15:00:00,28.593883,76.270653,CO,10.0,25.0,16.0
India,Gujarat,Gandhinagar,"IIPHG Lekawada, Gandhinagar - IITM",08-11-2025 15:00:00,23.243639,72.68994,PM2.5,42.0,91.0,68.0
India,Gujarat,Gandhinagar,"Sector-10, Gandhinagar - GPCB",08-11-2025 15:00:00,23.221714,72.654328,NH3,1.0,1.0,1.0
India,Haryana,Sonipat,"Murthal, Sonipat - HSPCB",08-11-2025 15:00:00,29.0272,77.0621,NH3,10.0,21.0,16.0
India,Haryana,Yamuna Nagar,"Gobind Pura, Yamuna Nagar - HSPCB",08-11-2025 15:00:00,30.1480566,77.2893471,PM10,115.0,209.0,152.0
India,Himachal Pradesh,Baddi,"HIMUDA Complex Phase-1, Baddi - HPPCB",08-11-2025 15:00:00,30.943887,76.801991,PM10,86.0,425.0,196.0
India,Himachal Pradesh,Baddi,"HIMUDA Complex Phase-1, Baddi - HPPCB",08-11-2025 15:00:00,30.943887,76.801991,NO2,21.0,118.0,59.0
India,Himachal Pradesh,Baddi,"HIMUDA Complex Phase-1, Baddi - HPPCB",08-11-2025 15:00:00,30.943887,76.801991,NH3,5.0,7.0,6.0
India,Jammu_and_Kashmir,Srinagar,"Rajbagh, Srinagar - JKSPCB",08-11-2025 15:00:00,34.066206,74.81982,OZONE,,,
India,Jharkhand,Dhanbad,"Sardar Patel Nagar, Dhanbad - JSPCB",08-11-2025 15:00:00,23.80569,86.44268,NO2,91.0,115.0,96.0
India,Karnataka,Yadgir,"Collector Office, Yadgir - KSPCB",08-11-2025 15:00:00,16.7602,77.1428,PM10,47.0,106.0,69.0
India,Karnataka,Yadgir,"Collector Office, Yadgir - KSPCB",08-11-2025 15:00:00,16.7602,77.1428,NH3,1.0,2.0,2.0
India,Kerala,Eloor,"Udyogamandal, Eloor - Kerala PCB",08-11-2025 15:00:00,10.073232,76.302765,PM10,,,
India,Kerala,Kannur,"Thavakkara, Kannur - Kerala PCB",08-11-2025 15:00:00,11.875,75.3732,PM2.5,44.0,51.0,47.0
India,Kerala,Kannur,"Thavakkara, Kannur - Kerala PCB",08-11-2025 15:00:00,11.875,75.3732,NH3,1.0,1.0,1.0
India,Kerala,Kannur,"Thavakkara, Kannur - Kerala PCB",08-11-2025 15:00:00,11.875,75.3732,CO,14.0,16.0,15.0
India,Kerala,Thiruvananthapuram,"Kariavattom, Thiruvananthapuram - Kerala PCB",08-11-2025 15:00:00,8.5637,76.8865,PM10,60.0,76.0,69.0
India,Kerala,Thiruvananthapuram,"Kariavattom, Thiruvananthapuram - Kerala PCB",08-11-2025 15:00:00,8.5637,76.8865,NO2,6.0,7.0,6.0
India,Kerala,Thiruvananthapuram,"Kariavattom, Thiruvananthapuram - Kerala PCB",08-11-2025 15:00:00,8.5637,76.8865,OZONE,36.0,36.0,36.0
India,Karnataka,Dharwad,"Kalabhavan, Dharwad - KSPCB",08-11-2025 15:00:00,15.459706,75.008381,PM2.5,42.0,94.0,62.0
India,Karnataka,Gadag,"Panchal Nagar, Gadag - KSPCB",08-11-2025 15:00:00,15.411456,75.638133,NO2,,,
India,Karnataka,Hubballi,"Lingaraj Nagar, Hubballi - KSPCB",08-11-2025 15:00:00,15.3714823,75.1160168,PM10,46.0,70.0,55.0
India,Karnataka,Hubballi,"Lingaraj Nagar, Hubballi - KSPCB",08-11-2025 15:00:00,15.3714823,75.1160168,CO,6.0,24.0,9.0
India,Karnataka,Kalaburagi,"Lal Bahadur Shastri Nagar, Kalaburagi - KSPCB",08-11-2025 15:00:00,17.321993,76.822628,PM2.5,,,
India,Jharkhand,Jorapokhar,"Tata Stadium, Jorapokhar - JSPCB",08-11-2025 15:00:00,23.707909,86.41467,SO2,,,
India,Karnataka,Belgaum,"Ramteerth Nagar, Belgaum - KSPCB",08-11-2025 15:00:00,15.888653,74.541751,PM2.5,19.0,185.0,68.0
India,Karnataka,Bengaluru,"BTM Layout, Bengaluru - CPCB",08-11-2025 15:00:00,12.9135218,77.5950804,NO2,,,
India,Karnataka,Bengaluru,"BWSSB Kadabesanahalli, Bengaluru - CPCB",08-11-2025 15:00:00,12.9352049,77.6814488,SO2,1.0,7.0,4.0
India,Karnataka,Bengaluru,"Silk Board, Bengaluru - KSPCB",08-11-2025 15:00:00,12.917348,77.622813,NH3,2.0,2.0,2.0
India,Karnataka,Bidar,"Naubad, Bidar - KSPCB",08-11-2025 15:00:00,17.930306,77.482194,NH3,4.0,4.0,4.0
India,Karnataka,Bidar,"Naubad, Bidar - KSPCB",08-11-2025 15:00:00,17.930306,77.482194,CO,14.0,33.0,27.0
India,Karnataka,Chamarajanagar,"Urban, Chamarajanagar - KSPCB",08-11-2025 15:00:00,11.55358,76.55521,PM2.5,29.0,36.0,30.0
India,Karnataka,Chamarajanagar,"Urban, Chamarajanagar - KSPCB",08-11-2025 15:00:00,11.55358,76.55521,CO,22.0,120.0,22.0
India,Karnataka,Kalaburagi,"Lal Bahadur Shastri Nagar, Kalaburagi - KSPCB",08-11-2025 15:00:00,17.321993,76.822628,CO,30.0,38.0,35.0
India,Karnataka,Kalaburagi,"Mahatma Basaveswar Colony, Kalaburgi - KSPCB",08-11-2025 15:00:00,17.336318,76.847397,PM2.5,19.0,36.0,30.0
India,Karnataka,Kalaburagi,"Mahatma Basaveswar Colony, Kalaburgi - KSPCB",08-11-2025 15:00:00,17.336318,76.847397,NO2,13.0,16.0,15.0
India,Karnataka,Mangalore,"Kadri, Mangalore - KSPCB",08-11-2025 15:00:00,12.88925,74.853,NH3,1.0,7.0,1.0
India,Karnataka,Bengaluru,"Jigani, Bengaluru - KSPCB",08-11-2025 15:00:00,12.7816279,77.6299145,SO2,18.0,22.0,18.0
India,Karnataka,Bengaluru,"Jigani, Bengaluru - KSPCB",08-11-2025 15:00:00,12.7816279,77.6299145,OZONE,19.0,21.0,20.0
India,Karnataka,Bengaluru,"Kasturi Nagar, Bengaluru - KSPCB",08-11-2025 15:00:00,13.003872,77.664217,PM10,68.0,70.0,69.0
India,Karnataka,Bengaluru,"Kasturi Nagar, Bengaluru - KSPCB",08-11-2025 15:00:00,13.003872,77.664217,NO2,29.0,30.0,29.0
India,Karnataka,Bengaluru,"Shivapura_Peenya, Bengaluru - KSPCB",08-11-2025 15:00:00,13.0246342,77.5080115,PM10,,,
India,Karnataka,Bengaluru,"City Railway Station, Bengaluru - KSPCB",08-11-2025 15:00:00,12.9756843,77.5660749,SO2,11.0,18.0,14.0
India,Karnataka,Bengaluru,"Jayanagar 5th Block, Bengaluru - KSPCB",08-11-2025 15:00:00,12.920984,77.584908,PM10,68.0,112.0,90.0
India,Karnataka,Bengaluru,"Jayanagar 5th Block, Bengaluru - KSPCB",08-11-2025 15:00:00,12.920984,77.584908,CO,10.0,87.0,41.0
India,Karnataka,Bengaluru,"Jayanagar 5th Block, Bengaluru - KSPCB",08-11-2025 15:00:00,12.920984,77.584908,OZONE,4.0,65.0,45.0
India,Karnataka,Tumakuru,"Thimmalapura, Tumakuru - KSPCB",08-11-2025 15:00:00,13.377516,77.099072,NH3,,,
India,Karnataka,Tumakuru,"Thimmalapura, Tumakuru - KSPCB",08-11-2025 15:00:00,13.377516,77.099072,SO2,,,
India,Karnataka,Tumakuru,"Thimmalapura, Tumakuru - KSPCB",08-11-2025 15:00:00,13.377516,77.099072,CO,53.0,54.0,54.0
India,Karnataka,Udupi,"Brahmagiri, Udupi - KSPCB",08-11-2025 15:00:00,13.34194444,74.74694444,SO2,8.0,8.0,8.0
India,Madhya Pradesh,Indore,"Airport Area, Indore - IMC",08-11-2025 15:00:00,22.7289,75.8076,SO2,20.0,20.0,20.0
India,Madhya Pradesh,Indore,"Airport Area, Indore - IMC",08-11-2025 15:00:00,22.7289,75.8076,CO,4.0,8.0,6.0
India,Madhya Pradesh,Indore,"Chhoti Gwaltoli, Indore - MPPCB",08-11-2025 15:00:00,22.431,75.5213,PM10,38.0,168.0,101.0
India,Madhya Pradesh,Indore,"Chhoti Gwaltoli, Indore - MPPCB",08-11-2025 15:00:00,22.431,75.5213,NH3,1.0,8.0,3.0
India,Madhya Pradesh,Indore,"Chhoti Gwaltoli, Indore - MPPCB",08-11-2025 15:00:00,22.431,75.5213,SO2,12.0,41.0,19.0
India,Madhya Pradesh,Indore,"Maguda Nagar, Indore - IMC",08-11-2025 15:00:00,22.7524,75.8872,SO2,,,
India,Madhya Pradesh,Indore,"Regional Park, Indore - IMC",08-11-2025 15:00:00,22.678,75.8559,PM10,31.0,222.0,102.0
India,Madhya Pradesh,Indore,"Regional Park, Indore - IMC",08-11-2025 15:00:00,22.678,75.8559,NH3,,,
India,Madhya Pradesh,Indore,"Regional Park, Indore - IMC",08-11-2025 15:00:00,22.678,75.8559,OZONE,10.0,24.0,16.0
India,Madhya Pradesh,Indore,"Residency Area, Indore - IMC",08-11-2025 15:00:00,22.7084,75.8815,NO2,12.0,18.0,16.0
India,Maharashtra,Akola,"Ramdaspeth, Akola - MPCB",08-11-2025 15:00:00,20.719516,77.000253,NO2,13.0,64.0,27.0
India,Maharashtra,Akola,"Ramdaspeth, Akola - MPCB",08-11-2025 15:00:00,20.719516,77.000253,NH3,3.0,13.0,6.0
India,Maharashtra,Amravati,"Shivneri Colony, Amravati - MPCB",08-11-2025 15:00:00,20.9402359,77.7895248,PM2.5,22.0,131.0,89.0
India,Maharashtra,Amravati,"Shivneri Colony, Amravati - MPCB",08-11-2025 15:00:00,20.9402359,77.7895248,PM10,82.0,161.0,124.0
India,Maharashtra,Amravati,"Shivneri Colony, Amravati - MPCB",08-11-2025 15:00:00,20.9402359,77.7895248,NO2,13.0,36.0,20.0
India,Maharashtra,Amravati,"Shri Shivaji Science College, Amravati - MPCB",08-11-2025 15:00:00,20.939198,77.765701,NO2,5.0,87.0,28.0
India,Maharashtra,Aurangabad,"MIDC Chilkalthana, Aurangabad - MPCB",08-11-2025 15:00:00,19.87562,75.38731,PM10,20.0,144.0,85.0
India,Maharashtra,Aurangabad,"MIDC Chilkalthana, Aurangabad - MPCB",08-11-2025 15:00:00,19.87562,75.38731,NO2,13.0,137.0,61.0
India,Maharashtra,Aurangabad,"Rachnakar Colony, Aurangabad - MPCB",08-11-2025 15:00:00,19.863756,75.321188,PM2.5,55.0,304.0,145.0
India,Maharashtra,Aurangabad,"Rachnakar Colony, Aurangabad - MPCB",08-11-2025 15:00:00,19.863756,75.321188,PM10,52.0,166.0,105.0
India,Maharashtra,Aurangabad,"Rachnakar Colony, Aurangabad - MPCB",08-11-2025 15:00:00,19.863756,75.321188,CO,17.0,69.0,27.0
India,Maharashtra,Aurangabad,"Rachnakar Colony, Aurangabad - MPCB",08-11-2025 15:00:00,19.863756,75.321188,OZONE,11.0,85.0,41.0
India,Maharashtra,Badlapur,"Katrap, Badlapur - MPCB",08-11-2025 15:00:00,19.16485,73.23409,NO2,9.0,30.0,20.0
India,Maharashtra,Badlapur,"Katrap, Badlapur - MPCB",08-11-2025 15:00:00,19.16485,73.23409,CO,14.0,66.0,24.0
India,Maharashtra,Badlapur,"Katrap, Badlapur - MPCB",08-11-2025 15:00:00,19.16485,73.23409,OZONE,12.0,78.0,38.0
India,Maharashtra,Belapur,"CBD Belapur, Belapur - MPCB",08-11-2025 15:00:00,19.0243902,73.0406721,SO2,1.0,7.0,4.0
India,Madhya Pradesh,Jabalpur,"Gupteshwar, Jabalpur - JMC",08-11-2025 15:00:00,23.142888,79.916147,SO2,7.0,11.0,8.0
India,Madhya Pradesh,Jabalpur,"Gupteshwar, Jabalpur - JMC",08-11-2025 15:00:00,23.142888,79.916147,OZONE,3.0,93.0,56.0
India,Madhya Pradesh,Jabalpur,"Marhatal, Jabalpur - MPPCB",08-11-2025 15:00:00,23.168606,79.932247,NO2,20.0,117.0,51.0
India,Madhya Pradesh,Jabalpur,"Marhatal, Jabalpur - MPPCB",08-11-2025 15:00:00,23.168606,79.932247,CO,10.0,121.0,40.0
India,Madhya Pradesh,Jabalpur,"Suhagi, Jabalpur - JMC",08-11-2025 15:00:00,23.218135,79.95777,PM2.5,90.0,270.0,186.0
India,Madhya Pradesh,Jabalpur,"Suhagi, Jabalpur - JMC",08-11-2025 15:00:00,23.218135,79.95777,PM10,93.0,162.0,127.0
India,Kerala,Thrissur,"Corporation Ground, Thrissur - Kerala PCB",08-11-2025 15:00:00,10.5324,76.2159,PM2.5,46.0,56.0,51.0
India,Kerala,Thrissur,"Corporation Ground, Thrissur - Kerala PCB",08-11-2025 15:00:00,10.5324,76.2159,OZONE,29.0,30.0,30.0
India,Madhya Pradesh,Bhopal,"Idgah Hills, Bhopal - MPPCB",08-11-2025 15:00:00,23.264759,77.381568,SO2,8.0,11.0,9.0
India,Madhya Pradesh,Bhopal,"Paryavaran Parisar, Bhopal - MPPCB",08-11-2025 15:00:00,23.210494,77.425409,NO2,16.0,93.0,40.0
India,Madhya Pradesh,Bhopal,"Paryavaran Parisar, Bhopal - MPPCB",08-11-2025 15:00:00,23.210494,77.425409,CO,10.0,58.0,22.0
India,Madhya Pradesh,Katni,"Gole Bazar, Katni - MPPCB",08-11-2025 15:00:00,23.50016,80.23284,PM2.5,64.0,332.0,196.0
India,Madhya Pradesh,Katni,"Gole Bazar, Katni - MPPCB",08-11-2025 15:00:00,23.50016,80.23284,PM10,80.0,293.0,153.0
India,Madhya Pradesh,Katni,"Gole Bazar, Katni - MPPCB",08-11-2025 15:00:00,23.50016,80.23284,OZONE,14.0,117.0,77.0
India,Madhya Pradesh,Mandideep,"Sector-D Industrial Area, Mandideep - MPPCB",08-11-2025 15:00:00,23.10844,77.511428,NO2,36.0,185.0,95.0
India,Madhya Pradesh,Mandideep,"Sector-D Industrial Area, Mandideep - MPPCB",08-11-2025 15:00:00,23.10844,77.511428,NH3,1.0,4.0,3.0
India,Madhya Pradesh,Sagar,"Civil Lines, Sagar - MPPCB",08-11-2025 15:00:00,23.838586,78.759431,CO,15.0,58.0,34.0
India,Madhya Pradesh,Singrauli,"Suryakiran Bhawan NCL, Singrauli - MPPCB",08-11-2025 15:00:00,24.10897,82.64558,CO,12.0,15.0,14.0
India,Madhya Pradesh,Singrauli,"Suryakiran Bhawan NCL, Singrauli - MPPCB",08-11-2025 15:00:00,24.10897,82.64558,OZONE,11.0,80.0,54.0
India,Maharashtra,Ahmednagar,"Tarakpur, Ahmednagar - MPCB",08-11-2025 15:00:00,19.10122,74.73339,CO,12.0,78.0,22.0
India,Madhya Pradesh,Dewas,"Bhopal Chauraha, Dewas - MPPCB",08-11-2025 15:00:00,22.9682591,76.064118,PM2.5,49.0,174.0,89.0
India,Madhya Pradesh,Dewas,"Bhopal Chauraha, Dewas - MPPCB",08-11-2025 15:00:00,22.9682591,76.064118,PM10,68.0,156.0,112.0
India,Madhya Pradesh,Gwalior,"Deen Dayal Nagar, Gwalior - MPPCB",08-11-2025 15:00:00,26.259242,78.216432,PM2.5,65.0,428.0,223.0
India,Madhya Pradesh,Gwalior,"Deen Dayal Nagar, Gwalior - MPPCB",08-11-2025 15:00:00,26.259242,78.216432,NO2,11.0,154.0,56.0
India,Madhya Pradesh,Mandideep,"Sector-D Industrial Area, Mandideep - MPPCB",08-11-2025 15:00:00,23.10844,77.511428,CO,9.0,111.0,21.0
India,Madhya Pradesh,Pithampur,"Sector-2 Industrial Area, Pithampur - MPPCB",08-11-2025 15:00:00,22.624758,75.675238,PM2.5,53.0,164.0,110.0
India,Madhya Pradesh,Pithampur,"Sector-2 Industrial Area, Pithampur - MPPCB",08-11-2025 15:00:00,22.624758,75.675238,OZONE,34.0,67.0,40.0
India,Maharashtra,Mumbai,"Chakala-Andheri East, Mumbai - IITM",08-11-2025 15:00:00,19.11074,72.86084,SO2,,,
India,Maharashtra,Mumbai,"Chembur, Mumbai - MPCB",08-11-2025 15:00:00,19.0364585,72.8954371,SO2,,,
India,Maharashtra,Mumbai,"Chhatrapati Shivaji Intl. Airport (T2), Mumbai - MPCB",08-11-2025 15:00:00,19.10078,72.87462,PM10,85.0,130.0,112.0
India,Maharashtra,Mumbai,"Chhatrapati Shivaji Intl. Airport (T2), Mumbai - MPCB",08-11-2025 15:00:00,19.10078,72.87462,NH3,1.0,1.0,1.0
India,Maharashtra,Mumbai,"Chhatrapati Shivaji Intl. Airport (T2), Mumbai - MPCB",08-11-2025 15:00:00,19.10078,72.87462,SO2,20.0,21.0,21.0
India,Maharashtra,Mumbai,"Colaba, Mumbai - MPCB",08-11-2025 15:00:00,18.91,72.82,PM2.5,18.0,50.0,33.0
India,Maharashtra,Mumbai,"Colaba, Mumbai - MPCB",08-11-2025 15:00:00,18.91,72.82,OZONE,11.0,11.0,11.0
India,Maharashtra,Mumbai,"Deonar, Mumbai - IITM",08-11-2025 15:00:00,19.04946,72.923,PM10,118.0,227.0,172.0
India,Maharashtra,Latur,"Sawe Wadi, Latur - MPCB",08-11-2025 15:00:00,18.39963,76.57452,CO,4.0,26.0,17.0
India,Maharashtra,Mahad,"Kamble Tarf Birwadi, Mahad - MPCB",08-11-2025 15:00:00,18.1023399,73.4783687,SO2,16.0,65.0,23.0
India,Maharashtra,Mahad,"Kamble Tarf Birwadi, Mahad - MPCB",08-11-2025 15:00:00,18.1023399,73.4783687,CO,2.0,33.0,5.0
India,Maharashtra,Malegaon,"Mahesh Nagar, Malegaon - MPCB",08-11-2025 15:00:00,20.555712,74.529236,SO2,4.0,28.0,9.0
India,Maharashtra,Mumbai,"Bandra Kurla Complex, Mumbai - IITM",08-11-2025 15:00:00,19.053536,72.84643,OZONE,2.0,130.0,24.0
India,Maharashtra,Mumbai,"Bandra Kurla Complex, Mumbai - MPCB",08-11-2025 15:00:00,19.065931,72.862131,SO2,4.0,8.0,5.0
India,Maharashtra,Mumbai,"Bandra Kurla Complex, Mumbai - MPCB",08-11-2025 15:00:00,19.065931,72.862131,CO,2.0,60.0,22.0
India,Maharashtra,Mumbai,"Malad West, Mumbai - IITM",08-11-2025 15:00:00,19.19709,72.82204,OZONE,4.0,147.0,76.0
India,Maharashtra,Mumbai,"Mazgaon, Mumbai - IITM",08-11-2025 15:00:00,18.96702,72.84214,PM2.5,67.0,150.0,95.0
India,Maharashtra,Mumbai,"Mazgaon, Mumbai - IITM",08-11-2025 15:00:00,18.96702,72.84214,SO2,7.0,16.0,10.0
India,Maharashtra,Mumbai,"Mindspace-Malad West, Mumbai - MPCB",08-11-2025 15:00:00,19.1878657,72.8304069,PM10,38.0,96.0,64.0
India,Maharashtra,Mumbai,"Mulund West, Mumbai - MPCB",08-11-2025 15:00:00,19.175,72.9419,NH3,3.0,4.0,4.0
India,Maharashtra,Mumbai,"Powai, Mumbai - MPCB",08-11-2025 15:00:00,19.1375,72.915056,PM2.5,54.0,114.0,74.0
India,Maharashtra,Chandrapur,"MIDC Khutala, Chandrapur - MPCB",08-11-2025 15:00:00,19.9775302,79.2337086,OZONE,17.0,19.0,18.0
India,Maharashtra,Dhule,"Deopur, Dhule - MPCB",08-11-2025 15:00:00,20.918946,74.776388,OZONE,26.0,32.0,30.0
India,Maharashtra,Jalna,"Old MIDC, Jalna - MPCB",08-11-2025 15:00:00,19.854616,75.905894,NH3,2.0,5.0,4.0
India,Maharashtra,Kalyan,"Khadakpada, Kalyan - MPCB",08-11-2025 15:00:00,19.25292,73.142019,PM2.5,,,
India,Maharashtra,Kalyan,"Khadakpada, Kalyan - MPCB",08-11-2025 15:00:00,19.25292,73.142019,PM10,,,
India,Maharashtra,Kolhapur,"Shivaji University, Kolhapur - MPCB",08-11-2025 15:00:00,16.6870449,74.2505872,SO2,1.0,6.0,5.0
India,Maharashtra,Kolhapur,"Shivaji University, Kolhapur - MPCB",08-11-2025 15:00:00,16.6870449,74.2505872,CO,8.0,56.0,17.0
India,Maharashtra,Kolhapur,"Sinchan Bhavan, Kolhapur - MPCB",08-11-2025 15:00:00,16.7143745,74.2426398,CO,,,
India,Maharashtra,Latur,"Sawe Wadi, Latur - MPCB",08-11-2025 15:00:00,18.39963,76.57452,PM10,35.0,60.0,50.0
India,Maharashtra,Latur,"Sawe Wadi, Latur - MPCB",08-11-2025 15:00:00,18.39963,76.57452,NO2,8.0,37.0,16.0
India,Maharashtra,Mumbai,"Kherwadi_Bandra East, Mumbai - MPCB",08-11-2025 15:00:00,19.0632143,72.8456324,NO2,2.0,55.0,23.0
India,Maharashtra,Mumbai,"Kherwadi_Bandra East, Mumbai - MPCB",08-11-2025 15:00:00,19.0632143,72.8456324,NH3,2.0,12.0,8.0
India,Maharashtra,Mumbai,"Khindipada-Bhandup West, Mumbai - IITM",08-11-2025 15:00:00,19.1653323,72.922099,CO,19.0,56.0,40.0
India,Maharashtra,Mumbai,"Kurla, Mumbai - MPCB",08-11-2025 15:00:00,19.0863,72.8888,NO2,4.0,7.0,5.0
India,Maharashtra,Mumbai,"Kurla, Mumbai - MPCB",08-11-2025 15:00:00,19.0863,72.8888,NH3,1.0,2.0,1.0
India,Maharashtra,Mumbai,"Borivali East, Mumbai - IITM",08-11-2025 15:00:00,19.23241,72.86895,OZONE,13.0,114.0,80.0
India,Maharashtra,Mumbai,"Borivali East, Mumbai - MPCB",08-11-2025 15:00:00,19.2243333,72.8658113,PM2.5,39.0,69.0,55.0
India,Maharashtra,Mumbai,"Borivali East, Mumbai - MPCB",08-11-2025 15:00:00,19.2243333,72.8658113,OZONE,7.0,12.0,10.0
India,Maharashtra,Mumbai,"Byculla, Mumbai - BMC",08-11-2025 15:00:00,18.9767,72.838,OZONE,5.0,153.0,45.0
India,Maharashtra,Chandrapur,"Chauhan Colony, Chandrapur - MPCB",08-11-2025 15:00:00,19.9629,79.298714,OZONE,19.0,19.0,19.0
India,Maharashtra,Chandrapur,"MIDC Khutala, Chandrapur - MPCB",08-11-2025 15:00:00,19.9775302,79.2337086,NO2,12.0,33.0,22.0
India,Maharashtra,Mumbai,"Ghatkopar, Mumbai - BMC",08-11-2025 15:00:00,19.083694,72.920967,PM2.5,44.0,96.0,69.0
India,Maharashtra,Mumbai,"Sion, Mumbai - MPCB",08-11-2025 15:00:00,19.047,72.8746,OZONE,6.0,13.0,9.0
India,Maharashtra,Mumbai,"Vile Parle West, Mumbai - MPCB",08-11-2025 15:00:00,19.10861,72.83622,PM2.5,28.0,62.0,41.0
India,Maharashtra,Mumbai,"Vile Parle West, Mumbai - MPCB",08-11-2025 15:00:00,19.10861,72.83622,SO2,11.0,59.0,43.0
India,Maharashtra,Mumbai,"Worli, Mumbai - MPCB",08-11-2025 15:00:00,18.9936162,72.8128113,PM10,70.0,105.0,90.0
India,Maharashtra,Nagpur,"Ambazari, Nagpur - MPCB",08-11-2025 15:00:00,21.121801,79.04952,NO2,11.0,98.0,31.0
India,Maharashtra,Nagpur,"Ambazari, Nagpur - MPCB",08-11-2025 15:00:00,21.121801,79.04952,CO,9.0,116.0,20.0
India,Maharashtra,Nagpur,"Ambazari, Nagpur - MPCB",08-11-2025 15:00:00,21.121801,79.04952,OZONE,1.0,94.0,68.0
India,Maharashtra,Nagpur,"Mahal, Nagpur - MPCB",08-11-2025 15:00:00,21.14472,79.107595,PM2.5,80.0,162.0,120.0
India,Maharashtra,Pune,"Katraj Dairy, Pune - MPCB",08-11-2025 15:00:00,18.45445,73.854155,OZONE,,,
India,Maharashtra,Pune,"Mhada Colony, Pune - IITM",08-11-2025 15:00:00,18.57304,73.927715,OZONE,14.0,133.0,86.0
India,Maharashtra,Pune,"Revenue Colony-Shivajinagar, Pune - IITM",08-11-2025 15:00:00,18.530085,73.849598,PM2.5,79.0,143.0,108.0
India,Maharashtra,Pune,"Revenue Colony-Shivajinagar, Pune - IITM",08-11-2025 15:00:00,18.530085,73.849598,CO,47.0,99.0,66.0
India,Maharashtra,Pune,"Savitribai Phule Pune University, Pune - MPCB",08-11-2025 15:00:00,18.547056,73.826908,PM2.5,41.0,177.0,111.0
India,Maharashtra,Pune,"Savitribai Phule Pune University, Pune - MPCB",08-11-2025 15:00:00,18.547056,73.826908,NO2,14.0,29.0,22.0
India,Maharashtra,Pune,"Savitribai Phule Pune University, Pune - MPCB",08-11-2025 15:00:00,18.547056,73.826908,SO2,1.0,2.0,2.0
India,Maharashtra,Navi Mumbai,"Sector-2E Kalamboli, Navi Mumbai - MPCB",08-11-2025 15:00:00,19.02579,73.10297,NH3,3.0,14.0,7.0
India,Maharashtra,Navi Mumbai,"Sector-2E Kalamboli, Navi Mumbai - MPCB",08-11-2025 15:00:00,19.02579,73.10297,SO2,1.0,8.0,4.0
India,Maharashtra,Navi Mumbai,"Tondare-Taloja, Navi Mumbai - MPCB",08-11-2025 15:00:00,19.063,73.1209,OZONE,11.0,11.0,11.0
India,Maharashtra,Pimpri-Chinchwad,"Gavalinagar, Pimpri Chinchwad - MPCB",08-11-2025 15:00:00,18.63673,73.82487,NH3,6.0,12.0,8.0
India,Maharashtra,Pimpri-Chinchwad,"Gavalinagar, Pimpri Chinchwad - MPCB",08-11-2025 15:00:00,18.63673,73.82487,CO,12.0,58.0,25.0
India,Maharashtra,Pimpri-Chinchwad,"Gavalinagar, Pimpri Chinchwad - MPCB",08-11-2025 15:00:00,18.63673,73.82487,OZONE,4.0,85.0,58.0
India,Maharashtra,Nashik,"Pandav Nagari, Nashik - MPCB",08-11-2025 15:00:00,19.9591346,73.7788008,NO2,6.0,38.0,15.0
India,Maharashtra,Nashik,"Pandav Nagari, Nashik - MPCB",08-11-2025 15:00:00,19.9591346,73.7788008,OZONE,6.0,55.0,35.0
India,Maharashtra,Navi Mumbai,"Nerul, Navi Mumbai - MPCB",08-11-2025 15:00:00,19.008751,73.01662,PM10,,,
India,Maharashtra,Navi Mumbai,"Sanpada, Navi Mumbai - MPCB",08-11-2025 15:00:00,19.0575752,73.0151367,OZONE,15.0,15.0,15.0
India,Maharashtra,Navi Mumbai,"Sector-2E Kalamboli, Navi Mumbai - MPCB",08-11-2025 15:00:00,19.02579,73.10297,PM2.5,73.0,303.0,186.0
India,Maharashtra,Mumbai,"Sewri, Mumbai - BMC",08-11-2025 15:00:00,19.000084,72.85673,PM10,16.0,82.0,36.0
India,Maharashtra,Mumbai,"Sewri, Mumbai - BMC",08-11-2025 15:00:00,19.000084,72.85673,NO2,1.0,9.0,2.0
India,Maharashtra,Mumbai,"Sewri, Mumbai - BMC",08-11-2025 15:00:00,19.000084,72.85673,SO2,8.0,119.0,53.0
India,Maharashtra,Mumbai,"Shivaji Nagar, Mumbai - BMC",08-11-2025 15:00:00,19.060498,72.923356,PM10,103.0,146.0,121.0
India,Maharashtra,Mumbai,"Shivaji Nagar, Mumbai - BMC",08-11-2025 15:00:00,19.060498,72.923356,CO,14.0,58.0,23.0
India,Maharashtra,Mumbai,"Sion, Mumbai - MPCB",08-11-2025 15:00:00,19.047,72.8746,PM10,36.0,153.0,64.0
India,Maharashtra,Mumbai,"Sion, Mumbai - MPCB",08-11-2025 15:00:00,19.047,72.8746,SO2,9.0,10.0,10.0
India,Maharashtra,Pimpri-Chinchwad,"Savta Mali Nagar, Pimpri-Chinchwad - IITM",08-11-2025 15:00:00,18.614767,73.799516,PM10,63.0,130.0,105.0
India,Maharashtra,Pimpri-Chinchwad,"Savta Mali Nagar, Pimpri-Chinchwad - IITM",08-11-2025 15:00:00,18.614767,73.799516,NO2,23.0,89.0,52.0
India,Maharashtra,Pimpri-Chinchwad,"Thergaon, Pimpri Chinchwad - MPCB",08-11-2025 15:00:00,18.616318,73.765797,PM2.5,65.0,232.0,131.0
India,Maharashtra,Pimpri-Chinchwad,"Thergaon, Pimpri Chinchwad - MPCB",08-11-2025 15:00:00,18.616318,73.765797,PM10,80.0,129.0,105.0
India,Maharashtra,Pune,"Dhankawadi, Pune - IITM",08-11-2025 15:00:00,18.459883,73.852193,PM2.5,,,
India,Maharashtra,Pune,"Dhankawadi, Pune - IITM",08-11-2025 15:00:00,18.459883,73.852193,PM10,,,
India,Maharashtra,Nagpur,"Opp GPO Civil Lines, Nagpur - MPCB",08-11-2025 15:00:00,21.152875,79.0517531,PM10,40.0,133.0,107.0
India,Maharashtra,Nagpur,"Opp GPO Civil Lines, Nagpur - MPCB",08-11-2025 15:00:00,21.152875,79.0517531,NO2,14.0,85.0,36.0
India,Maharashtra,Nagpur,"Opp GPO Civil Lines, Nagpur - MPCB",08-11-2025 15:00:00,21.152875,79.0517531,SO2,3.0,89.0,20.0
India,Maharashtra,Pune,"Transport Nagar-Nigdi, Pune - IITM",08-11-2025 15:00:00,18.664282,73.763966,PM2.5,29.0,99.0,58.0
India,Maharashtra,Pune,"Transport Nagar-Nigdi, Pune - IITM",08-11-2025 15:00:00,18.664282,73.763966,PM10,74.0,180.0,105.0
India,Maharashtra,Pune,"Transport Nagar-Nigdi, Pune - IITM",08-11-2025 15:00:00,18.664282,73.763966,OZONE,14.0,68.0,43.0
India,Maharashtra,Nanded,"Sneh Nagar, Nanded - MPCB",08-11-2025 15:00:00,19.173852,77.296291,CO,,,
India,Maharashtra,Nashik,"MIDC Ambad, Nashik - MPCB",08-11-2025 15:00:00,19.95022,73.73148,PM2.5,36.0,59.0,44.0
India,Maharashtra,Nashik,"MIDC Ambad, Nashik - MPCB",08-11-2025 15:00:00,19.95022,73.73148,CO,13.0,15.0,14.0
India,Meghalaya,Shillong,"JN Stadium, Shillong - Meghalaya PCB",08-11-2025 15:00:00,25.5803419,91.8942571,CO,8.0,54.0,17.0
India,Meghalaya,Shillong,"JN Stadium, Shillong - Meghalaya PCB",08-11-2025 15:00:00,25.5803419,91.8942571,OZONE,4.0,4.0,4.0
India,Meghalaya,Shillong,"Lumpyngngad, Shillong - Meghalaya PCB",08-11-2025 15:00:00,25.5586,91.8985,NO2,,,
India,Meghalaya,Shillong,"Lumpyngngad, Shillong - Meghalaya PCB",08-11-2025 15:00:00,25.5586,91.8985,SO2,5.0,7.0,6.0
India,Nagaland,Kohima,"PWD Junction, Kohima - NPCB",08-11-2025 15:00:00,25.6635413,94.0989878,OZONE,4.0,14.0,9.0
India,Odisha,Angul,"Hakimapada, Angul - OSPCB",08-11-2025 15:00:00,20.832874,85.104082,SO2,6.0,33.0,15.0
India,Odisha,Angul,"Hakimapada, Angul - OSPCB",08-11-2025 15:00:00,20.832874,85.104082,OZONE,19.0,114.0,77.0
India,Odisha,Balasore,"Kalidaspur, Balasore - OSPCB",08-11-2025 15:00:00,21.51161,86.89088,PM2.5,,,
India,Odisha,Balasore,"Kalidaspur, Balasore - OSPCB",08-11-2025 15:00:00,21.51161,86.89088,SO2,6.0,12.0,8.0
India,Odisha,Balasore,"Kalidaspur, Balasore - OSPCB",08-11-2025 15:00:00,21.51161,86.89088,CO,12.0,22.0,20.0
India,Odisha,Rourkela,"Raghunathpali, Rourkela - OSPCB",08-11-2025 15:00:00,22.220833,84.809444,OZONE,15.0,122.0,73.0
India,Odisha,Talcher,"Talcher Coalfields,Talcher - OSPCB",08-11-2025 15:00:00,20.9360711,85.1707021,PM2.5,7.0,285.0,113.0
India,Odisha,Tensa,"Barsua Iron Ore Mines, Tensa - OSPCB",08-11-2025 15:00:00,21.869985,85.167016,PM2.5,,,
India,Odisha,Tensa,"Barsua Iron Ore Mines, Tensa - OSPCB",08-11-2025 15:00:00,21.869985,85.167016,OZONE,,,
India,Puducherry,Puducherry,"Jawahar Nagar, Puducherry - PPCC",08-11-2025 15:00:00,11.9309,79.8027,PM2.5,42.0,219.0,77.0
India,Puducherry,Puducherry,"Jawahar Nagar, Puducherry - PPCC",08-11-2025 15:00:00,11.9309,79.8027,OZONE,2.0,61.0,34.0
India,Punjab,Amritsar,"Golden Temple, Amritsar - PPCB",08-11-2025 15:00:00,31.62,74.876512,PM10,108.0,271.0,182.0
India,Punjab,Amritsar,"Golden Temple, Amritsar - PPCB",08-11-2025 15:00:00,31.62,74.876512,NH3,5.0,6.0,6.0
India,Odisha,Bhubaneswar,"Patia, Bhubaneswar - OSPCB",08-11-2025 15:00:00,20.34652,85.8163,CO,19.0,102.0,40.0
India,Odisha,Bileipada,"Tata Township, Bileipada - OSPCB",08-11-2025 15:00:00,22.06156703,85.47409613,CO,20.0,34.0,28.0
India,Odisha,Brajrajnagar,"GM Office, Brajrajnagar - OSPCB",08-11-2025 15:00:00,21.8004996,83.8396977,PM2.5,35.0,149.0,69.0
India,Odisha,Brajrajnagar,"GM Office, Brajrajnagar - OSPCB",08-11-2025 15:00:00,21.8004996,83.8396977,NH3,9.0,15.0,12.0
India,Odisha,Byasanagar,"Ferro Chrome Colony, Byasanagar - OSPCB",08-11-2025 15:00:00,20.94185,86.1151,PM10,55.0,159.0,88.0
India,Odisha,Cuttack,"CDA Area, Cuttack - OSPCB",08-11-2025 15:00:00,20.48891,85.84768,PM10,84.0,207.0,135.0
India,Odisha,Cuttack,"CDA Area, Cuttack - OSPCB",08-11-2025 15:00:00,20.48891,85.84768,NO2,13.0,122.0,45.0
India,Rajasthan,Ajmer,"Civil Lines,  Ajmer - RSPCB",08-11-2025 15:00:00,26.470859,74.646594,CO,6.0,30.0,12.0
India,Rajasthan,Ajmer,"Civil Lines,  Ajmer - RSPCB",08-11-2025 15:00:00,26.470859,74.646594,OZONE,3.0,19.0,10.0
India,Rajasthan,Alwar,"Moti Doongri, Alwar - RSPCB",08-11-2025 15:00:00,27.554793,76.611536,NO2,52.0,85.0,64.0
India,Rajasthan,Banswara,"Rati Talai, Banswara - RSPCB",08-11-2025 15:00:00,23.55519,74.44001,PM10,70.0,265.0,126.0
India,Rajasthan,Baran,"Bamboliya, Baran - RSPCB",08-11-2025 15:00:00,25.106006,76.469948,PM2.5,13.0,120.0,64.0
India,Rajasthan,Baran,"Bamboliya, Baran - RSPCB",08-11-2025 15:00:00,25.106006,76.469948,PM10,69.0,167.0,106.0
India,Rajasthan,Baran,"Bamboliya, Baran - RSPCB",08-11-2025 15:00:00,25.106006,76.469948,NO2,21.0,43.0,26.0
India,Rajasthan,Barmer,"Railway Colony, Barmer - RSPCB",08-11-2025 15:00:00,25.747299,71.393989,PM10,100.0,316.0,149.0
India,Odisha,Barbil,"Forest Office, Barbil - OSPCB",08-11-2025 15:00:00,22.1166054,85.3945546,PM10,55.0,171.0,93.0
India,Odisha,Baripada,"Meher Colony, Baripada - OSPCB",08-11-2025 15:00:00,21.941841,86.728318,PM10,81.0,124.0,103.0
India,Odisha,Baripada,"Meher Colony, Baripada - OSPCB",08-11-2025 15:00:00,21.941841,86.728318,CO,17.0,51.0,27.0
India,Odisha,Bhubaneswar,"Lingraj Mandir, Bhubaneswar - OSPCB",08-11-2025 15:00:00,20.24079,85.836784,PM2.5,85.0,335.0,167.0
India,Odisha,Bhubaneswar,"Lingraj Mandir, Bhubaneswar - OSPCB",08-11-2025 15:00:00,20.24079,85.836784,SO2,3.0,38.0,13.0
India,Odisha,Bhubaneswar,"Lingraj Mandir, Bhubaneswar - OSPCB",08-11-2025 15:00:00,20.24079,85.836784,OZONE,3.0,234.0,193.0
India,Odisha,Keonjhar,"Jagamohanpur, Keonjhar - OSPCB",08-11-2025 15:00:00,21.6439,85.599355,NO2,19.0,39.0,28.0
India,Odisha,Keonjhar,"Jagamohanpur, Keonjhar - OSPCB",08-11-2025 15:00:00,21.6439,85.599355,SO2,7.0,31.0,12.0
India,Odisha,Keonjhar,"Jagamohanpur, Keonjhar - OSPCB",08-11-2025 15:00:00,21.6439,85.599355,CO,4.0,114.0,59.0
India,Odisha,Keonjhar,"Jagamohanpur, Keonjhar - OSPCB",08-11-2025 15:00:00,21.6439,85.599355,OZONE,17.0,31.0,20.0
India,Odisha,Rairangpur,"Divisional Forest Office, Rairangpur - OSPCB",08-11-2025 15:00:00,22.265816,86.174829,NO2,8.0,8.0,8.0
India,Odisha,Rourkela,"Fertilizer Township, Rourkela - OSPCB",08-11-2025 15:00:00,22.18972222,84.86277778,SO2,,,
India,Maharashtra,Thane,"Kasarvadavali, Thane - MPCB",08-11-2025 15:00:00,19.26777,72.97182,SO2,4.0,12.0,6.0
India,Maharashtra,Thane,"Upvan Fort, Thane - MPCB",08-11-2025 15:00:00,19.222279,72.957979,PM10,64.0,126.0,107.0
India,Maharashtra,Thane,"Upvan Fort, Thane - MPCB",08-11-2025 15:00:00,19.222279,72.957979,NO2,9.0,59.0,26.0
India,Maharashtra,Virar,"Bolinj, Virar - MPCB",08-11-2025 15:00:00,19.445821,72.7988231,PM10,37.0,103.0,66.0
India,Maharashtra,Virar,"Bolinj, Virar - MPCB",08-11-2025 15:00:00,19.445821,72.7988231,SO2,2.0,5.0,3.0
India,Maharashtra,Virar,"Bolinj, Virar - MPCB",08-11-2025 15:00:00,19.445821,72.7988231,OZONE,18.0,74.0,44.0
India,Punjab,Jalandhar,"Civil Line, Jalandhar - PPCB",08-11-2025 15:00:00,31.321907,75.578914,SO2,16.0,17.0,17.0
India,Punjab,Khanna,"Kalal Majra, Khanna - PPCB",08-11-2025 15:00:00,30.736056,76.209694,NO2,27.0,30.0,28.0
India,Punjab,Ludhiana,"Punjab Agricultural University, Ludhiana - PPCB",08-11-2025 15:00:00,30.9028,75.8086,PM10,131.0,151.0,138.0
India,Punjab,Patiala,"Model Town, Patiala - PPCB",08-11-2025 15:00:00,30.349388,76.366642,OZONE,25.0,28.0,26.0
India,Punjab,Rupnagar,"Ratanpura, Rupnagar - Ambuja Cements",08-11-2025 15:00:00,31.0325454,76.5623046,PM2.5,21.0,194.0,71.0
India,Rajasthan,Bharatpur,"Krishna Nagar, Bharatpur - RSPCB",08-11-2025 15:00:00,27.215415,77.50873,PM2.5,23.0,191.0,63.0
India,Rajasthan,Bharatpur,"Krishna Nagar, Bharatpur - RSPCB",08-11-2025 15:00:00,27.215415,77.50873,PM10,41.0,228.0,101.0
India,Rajasthan,Bharatpur,"Krishna Nagar, Bharatpur - RSPCB",08-11-2025 15:00:00,27.215415,77.50873,NO2,21.0,149.0,56.0
India,Rajasthan,Bharatpur,"Krishna Nagar, Bharatpur - RSPCB",08-11-2025 15:00:00,27.215415,77.50873,CO,23.0,143.0,35.0
India,Rajasthan,Bhilwara,"Pratap Nagar, Bhilwara - RSPCB",08-11-2025 15:00:00,25.339605,74.618883,NO2,11.0,75.0,33.0
India,Rajasthan,Bhilwara,"Pratap Nagar, Bhilwara - RSPCB",08-11-2025 15:00:00,25.339605,74.618883,NH3,2.0,29.0,6.0
India,Rajasthan,Bhilwara,"Pratap Nagar, Bhilwara - RSPCB",08-11-2025 15:00:00,25.339605,74.618883,SO2,6.0,41.0,21.0
India,Rajasthan,Bhiwadi,"RIICO Ind. Area III, Bhiwadi - RSPCB",08-11-2025 15:00:00,28.194909,76.862296,PM2.5,117.0,329.0,230.0
India,Rajasthan,Bhiwadi,"RIICO Ind. Area III, Bhiwadi - RSPCB",08-11-2025 15:00:00,28.194909,76.862296,NO2,14.0,69.0,38.0
India,Rajasthan,Hanumangarh,"Housing Board, Hanumangarh - RSPCB",08-11-2025 15:00:00,29.61075,74.283608,NH3,10.0,53.0,22.0
India,Rajasthan,Hanumangarh,"Housing Board, Hanumangarh - RSPCB",08-11-2025 15:00:00,29.61075,74.283608,OZONE,5.0,97.0,60.0
India,Rajasthan,Jaipur,"Adarsh Nagar, Jaipur - RSPCB",08-11-2025 15:00:00,26.902909,75.836858,PM10,97.0,164.0,132.0
India,Rajasthan,Jaipur,"Adarsh Nagar, Jaipur - RSPCB",08-11-2025 15:00:00,26.902909,75.836858,SO2,4.0,37.0,23.0
India,Rajasthan,Jaipur,"Police Commissionerate, Jaipur - RSPCB",08-11-2025 15:00:00,26.9164092,75.7994901,SO2,7.0,9.0,8.0
India,Rajasthan,Jaipur,"Police Commissionerate, Jaipur - RSPCB",08-11-2025 15:00:00,26.9164092,75.7994901,CO,25.0,87.0,63.0
India,Rajasthan,Jaipur,"RIICO Sitapura, Jaipur - RSPCB",08-11-2025 15:00:00,26.786682,75.827928,PM10,103.0,361.0,173.0
India,Rajasthan,Jaipur,"Sector-2 Murlipura, Jaipur - RSPCB",08-11-2025 15:00:00,26.960669,75.771817,NO2,23.0,125.0,59.0
India,Rajasthan,Jaipur,"Shastri Nagar, Jaipur - RSPCB",08-11-2025 15:00:00,26.9502929,75.730943,PM2.5,64.0,233.0,134.0
India,Rajasthan,Jaipur,"Shastri Nagar, Jaipur - RSPCB",08-11-2025 15:00:00,26.9502929,75.730943,CO,48.0,106.0,87.0
India,Rajasthan,Jaisalmer,"Sadar Bazar, Jaisalmer - RSPCB",08-11-2025 15:00:00,26.912329,70.909168,NO2,10.0,131.0,45.0
India,Rajasthan,Jaisalmer,"Sadar Bazar, Jaisalmer - RSPCB",08-11-2025 15:00:00,26.912329,70.909168,SO2,4.0,13.0,6.0
India,Rajasthan,Jaisalmer,"Sadar Bazar, Jaisalmer - RSPCB",08-11-2025 15:00:00,26.912329,70.909168,CO,19.0,136.0,34.0
India,Rajasthan,Bhiwadi,"Vasundhara Nagar_UIT, Bhiwadi - RSPCB",08-11-2025 15:00:00,28.207266,76.829265,CO,17.0,80.0,37.0
India,Rajasthan,Bhiwadi,"Vasundhara Nagar_UIT, Bhiwadi - RSPCB",08-11-2025 15:00:00,28.207266,76.829265,OZONE,8.0,165.0,94.0
India,Rajasthan,Bundi,"New Colony, Bundi - RSPCB",08-11-2025 15:00:00,25.435774,75.644272,PM2.5,30.0,213.0,69.0
India,Rajasthan,Bundi,"New Colony, Bundi - RSPCB",08-11-2025 15:00:00,25.435774,75.644272,OZONE,12.0,149.0,106.0
India,Rajasthan,Chittorgarh,"Shastri Nagar, Chittorgarh - RSPCB",08-11-2025 15:00:00,24.892047,74.623527,PM2.5,10.0,325.0,99.0
India,Rajasthan,Jodhpur,"Jhalamand, Jodhpur - RSPCB",08-11-2025 15:00:00,26.215415,73.070156,NH3,5.0,31.0,18.0
India,Rajasthan,Jodhpur,"Samrat Ashok Udhyan, Jodhpur - RSPCB",08-11-2025 15:00:00,26.253384,72.976571,SO2,2.0,9.0,4.0
India,Rajasthan,Jodhpur,"Samrat Ashok Udhyan, Jodhpur - RSPCB",08-11-2025 15:00:00,26.253384,72.976571,CO,28.0,114.0,50.0
India,Rajasthan,Jodhpur,"Samrat Ashok Udhyan, Jodhpur - RSPCB",08-11-2025 15:00:00,26.253384,72.976571,OZONE,3.0,150.0,150.0
India,Rajasthan,Karauli,"Satyawati Vihar, Karauli - RSPCB",08-11-2025 15:00:00,26.506177,77.025989,NH3,4.0,12.0,9.0
India,Rajasthan,Jhunjhunu,"Indra Nagar, Jhunjhunu - RSPCB",08-11-2025 15:00:00,28.108988,75.386577,PM10,85.0,271.0,157.0
India,Rajasthan,Jodhpur,"Collectorate, Jodhpur - RSPCB",08-11-2025 15:00:00,26.268249,73.0193853,PM10,59.0,403.0,163.0
India,Rajasthan,Jodhpur,"Collectorate, Jodhpur - RSPCB",08-11-2025 15:00:00,26.268249,73.0193853,OZONE,9.0,67.0,32.0
India,Rajasthan,Jodhpur,"Digari Kalan, Jodhpur - RSPCB",08-11-2025 15:00:00,26.29581,73.082283,SO2,3.0,6.0,4.0
India,Rajasthan,Pratapgarh,"Pragati Nagar, Pratapgarh - RSPCB",08-11-2025 15:00:00,24.041198,74.780702,NH3,2.0,7.0,5.0
India,Rajasthan,Pratapgarh,"Pragati Nagar, Pratapgarh - RSPCB",08-11-2025 15:00:00,24.041198,74.780702,SO2,2.0,6.0,4.0
India,Rajasthan,Rajsamand,"Dhoinda, Rajsamand - RSPCB",08-11-2025 15:00:00,25.03636,73.883502,PM2.5,8.0,130.0,32.0
India,Rajasthan,Sawai Madhopur,"Sahu Nagar, Sawai Madhopur - RSPCB",08-11-2025 15:00:00,26.031443,76.359327,NH3,6.0,10.0,8.0
India,Rajasthan,Dausa,"Khatikan Mohalla, Dausa - RSPCB",08-11-2025 15:00:00,26.895552,76.334753,NH3,5.0,23.0,10.0
India,Rajasthan,Dholpur,"Raja Ganj, Dholpur - RSPCB",08-11-2025 15:00:00,26.699557,77.898881,SO2,2.0,31.0,16.0
India,Rajasthan,Dholpur,"Raja Ganj, Dholpur - RSPCB",08-11-2025 15:00:00,26.699557,77.898881,OZONE,9.0,106.0,14.0
India,Rajasthan,Dungarpur,"Bhoiwada, Dungarpur - RSPCB",08-11-2025 15:00:00,23.837789,73.714926,NH3,3.0,6.0,4.0
India,Rajasthan,Kota,"Dhanmandi, Kota - RSPCB",08-11-2025 15:00:00,25.16409,75.858137,CO,29.0,120.0,36.0
India,Rajasthan,Kota,"Nayapura, Kota - RSPCB",08-11-2025 15:00:00,25.196024,75.855668,PM2.5,37.0,253.0,120.0
India,Rajasthan,Kota,"Nayapura, Kota - RSPCB",08-11-2025 15:00:00,25.196024,75.855668,OZONE,2.0,168.0,93.0
India,Rajasthan,Kota,"Shrinath Puram, Kota - RSPCB",08-11-2025 15:00:00,25.14389,75.821256,SO2,3.0,34.0,9.0
India,Rajasthan,Sawai Madhopur,"Sahu Nagar, Sawai Madhopur - RSPCB",08-11-2025 15:00:00,26.031443,76.359327,CO,20.0,114.0,32.0
India,Rajasthan,Sikar,"Radhakishan Pura, Sikar - RSPCB",08-11-2025 15:00:00,27.608912,75.153302,PM10,116.0,433.0,220.0
India,Rajasthan,Sikar,"Radhakishan Pura, Sikar - RSPCB",08-11-2025 15:00:00,27.608912,75.153302,OZONE,8.0,96.0,60.0
India,Rajasthan,Sirohi,"Vedhaynath Colony, Sirohi - RSPCB",08-11-2025 15:00:00,24.885261,72.857549,OZONE,22.0,91.0,66.0
India,Rajasthan,Sri Ganganagar,"Old City, Sri Ganganagar - RSPCB",08-11-2025 15:00:00,29.931624,73.864511,PM10,78.0,500.0,204.0
India,Rajasthan,Sri Ganganagar,"Old City, Sri Ganganagar - RSPCB",08-11-2025 15:00:00,29.931624,73.864511,SO2,1.0,16.0,5.0
India,Rajasthan,Tonk,"Shastri Nagar, Tonk - RSPCB",08-11-2025 15:00:00,26.159933,75.780517,NO2,12.0,128.0,38.0
India,Rajasthan,Tonk,"Shastri Nagar, Tonk - RSPCB",08-11-2025 15:00:00,26.159933,75.780517,CO,20.0,119.0,29.0
India,TamilNadu,Chennai,"Gandhi Nagar_Ennore, Chennai - TNPCB",08-11-2025 15:00:00,13.218341,80.32027,PM10,18.0,71.0,41.0
India,TamilNadu,Chennai,"Gandhi Nagar_Ennore, Chennai - TNPCB",08-11-2025 15:00:00,13.218341,80.32027,CO,8.0,9.0,8.0
India,TamilNadu,Chennai,"Gandhi Nagar_Ennore, Chennai - TNPCB",08-11-2025 15:00:00,13.218341,80.32027,OZONE,6.0,19.0,13.0
India,TamilNadu,Chennai,"Kodungaiyur, Chennai - TNPCB",08-11-2025 15:00:00,13.1278,80.2642,CO,20.0,55.0,30.0
India,TamilNadu,Chennai,"Manali Village, Chennai - TNPCB",08-11-2025 15:00:00,13.1662,80.2584,PM10,31.0,186.0,105.0
India,TamilNadu,Chennai,"Manali Village, Chennai - TNPCB",08-11-2025 15:00:00,13.1662,80.2584,CO,30.0,46.0,38.0
India,TamilNadu,Chennai,"Manali, Chennai - CPCB",08-11-2025 15:00:00,13.164544,80.26285,PM2.5,1.0,341.0,78.0
India,TamilNadu,Chennai,"Manali, Chennai - CPCB",08-11-2025 15:00:00,13.164544,80.26285,PM10,65.0,125.0,86.0
India,TamilNadu,Chennai,"Manali, Chennai - CPCB",08-11-2025 15:00:00,13.164544,80.26285,SO2,12.0,24.0,17.0
India,TamilNadu,Chennai,"Manali, Chennai - CPCB",08-11-2025 15:00:00,13.164544,80.26285,OZONE,10.0,11.0,10.0
India,TamilNadu,Ooty,"Bombay Castel, Ooty - TNPCB",08-11-2025 15:00:00,11.4068288,76.7138973,PM2.5,43.0,186.0,76.0
India,TamilNadu,Ooty,"Bombay Castel, Ooty - TNPCB",08-11-2025 15:00:00,11.4068288,76.7138973,PM10,40.0,129.0,73.0
India,TamilNadu,Ooty,"Bombay Castel, Ooty - TNPCB",08-11-2025 15:00:00,11.4068288,76.7138973,SO2,5.0,9.0,7.0
India,TamilNadu,Palkalaiperur,"Bharathidasan University, Palkalaiperur - TNPCB",08-11-2025 15:00:00,10.681158,78.741746,PM2.5,38.0,62.0,48.0
India,TamilNadu,Palkalaiperur,"Bharathidasan University, Palkalaiperur - TNPCB",08-11-2025 15:00:00,10.681158,78.741746,PM10,53.0,68.0,60.0
India,TamilNadu,Palkalaiperur,"Bharathidasan University, Palkalaiperur - TNPCB",08-11-2025 15:00:00,10.681158,78.741746,NH3,1.0,2.0,1.0
India,TamilNadu,Perundurai,"SIPCOT Industrial Park, Perundurai - TNPCB",08-11-2025 15:00:00,11.258242,77.552761,NH3,2.0,3.0,2.0
India,TamilNadu,Ramanathapuram,"Chalai Bazaar, Ramanathapuram - TNPCB",08-11-2025 15:00:00,9.36399,78.831977,PM10,17.0,56.0,38.0
India,TamilNadu,Chennai,"Perungudi, Chennai - TNPCB",08-11-2025 15:00:00,12.9533,80.2357,NO2,3.0,13.0,6.0
India,TamilNadu,Chennai,"Royapuram, Chennai - TNPCB",08-11-2025 15:00:00,13.1036,80.2909,PM2.5,55.0,323.0,101.0
India,TamilNadu,Chennai,"Royapuram, Chennai - TNPCB",08-11-2025 15:00:00,13.1036,80.2909,NO2,13.0,81.0,39.0
India,TamilNadu,Chennai,"Velachery Res. Area, Chennai - CPCB",08-11-2025 15:00:00,13.0052189,80.2398125,PM10,103.0,123.0,112.0
India,TamilNadu,Chennai,"Velachery Res. Area, Chennai - CPCB",08-11-2025 15:00:00,13.0052189,80.2398125,NO2,13.0,16.0,14.0
India,TamilNadu,Coimbatore,"PSG College of Arts and Science, Coimbatore - TNPCB",08-11-2025 15:00:00,11.0328,77.0349,OZONE,4.0,6.0,5.0
India,TamilNadu,Coimbatore,"SIDCO Kurichi, Coimbatore - TNPCB",08-11-2025 15:00:00,10.942451,76.978996,NO2,12.0,24.0,19.0
India,TamilNadu,Tirunelveli,"Municipal Corporation Office, Tirunelveli - TNPCB",08-11-2025 15:00:00,8.728442,77.6962,SO2,15.0,19.0,19.0
India,TamilNadu,Vellore,"Vasanthapuram, Vellore - TNPCB",08-11-2025 15:00:00,12.909494,79.131861,CO,8.0,8.0,8.0
India,TamilNadu,Vellore,"Vasanthapuram, Vellore - TNPCB",08-11-2025 15:00:00,12.909494,79.131861,OZONE,4.0,91.0,53.0
India,TamilNadu,Virudhunagar,"Collectorate Office, Virudhunagar - TNPCB",08-11-2025 15:00:00,9.559382,77.948828,NO2,20.0,20.0,20.0
India,Telangana,Hyderabad,"Bollaram Industrial Area, Hyderabad - TSPCB",08-11-2025 15:00:00,17.540891,78.358528,SO2,4.0,8.0,7.0
India,Telangana,Hyderabad,"Bollaram Industrial Area, Hyderabad - TSPCB",08-11-2025 15:00:00,17.540891,78.358528,CO,18.0,37.0,32.0
India,TamilNadu,Cuddalore,"Kudikadu, Cuddalore - TNPCB",08-11-2025 15:00:00,11.6829898,79.7532099,NO2,19.0,19.0,19.0
India,TamilNadu,Cuddalore,"Kudikadu, Cuddalore - TNPCB",08-11-2025 15:00:00,11.6829898,79.7532099,NH3,4.0,5.0,4.0
India,TamilNadu,Cuddalore,"Kudikadu, Cuddalore - TNPCB",08-11-2025 15:00:00,11.6829898,79.7532099,OZONE,13.0,15.0,14.0
India,TamilNadu,Dindigul,"Mendonsa Colony, Dindigul - TNPCB",08-11-2025 15:00:00,10.358535,77.984321,NO2,6.0,10.0,8.0
India,TamilNadu,Dindigul,"Mendonsa Colony, Dindigul - TNPCB",08-11-2025 15:00:00,10.358535,77.984321,NH3,2.0,3.0,3.0
India,TamilNadu,Hosur,"SIPCOT Phase-1, Hosur - TNPCB",08-11-2025 15:00:00,12.746998,77.813811,NO2,1.0,2.0,2.0
India,TamilNadu,Hosur,"SIPCOT Phase-1, Hosur - TNPCB",08-11-2025 15:00:00,12.746998,77.813811,SO2,20.0,25.0,21.0
India,TamilNadu,Kanchipuram,"Kilambi, Kanchipuram - TNPCB",08-11-2025 15:00:00,12.864618,79.659968,SO2,8.0,12.0,10.0
India,TamilNadu,Karur,"Kamadenu Nagar, Karur - TNPCB",08-11-2025 15:00:00,10.96782,78.080882,NO2,,,
India,TamilNadu,Karur,"Kamadenu Nagar, Karur - TNPCB",08-11-2025 15:00:00,10.96782,78.080882,OZONE,6.0,10.0,8.0
India,TamilNadu,Nagapattinam,"Velippalayam, Nagapattinam - TNPCB",08-11-2025 15:00:00,10.798548,79.838212,CO,14.0,24.0,21.0
India,TamilNadu,Nagapattinam,"Velippalayam, Nagapattinam - TNPCB",08-11-2025 15:00:00,10.798548,79.838212,OZONE,1.0,1.0,1.0
India,TamilNadu,Namakkal,"Ponnusamy Nagar, Namakkal - TNPCB",08-11-2025 15:00:00,11.273992,78.163545,NO2,10.0,10.0,10.0
India,TamilNadu,Ramanathapuram,"Chalai Bazaar, Ramanathapuram - TNPCB",08-11-2025 15:00:00,9.36399,78.831977,SO2,2.0,4.0,3.0
India,TamilNadu,Salem,"Sona College of Technology, Salem - TNPCB",08-11-2025 15:00:00,11.679111,78.125052,PM2.5,32.0,91.0,54.0
India,TamilNadu,Tiruchirappalli,"St Joseph College, Tiruchirappalli - TNPCB",08-11-2025 15:00:00,10.830158,78.691849,SO2,10.0,14.0,13.0
India,TamilNadu,Tirunelveli,"Municipal Corporation Office, Tirunelveli - TNPCB",08-11-2025 15:00:00,8.728442,77.6962,PM10,17.0,37.0,26.0
India,Rajasthan,Udaipur,"Ashok Nagar, Udaipur - RSPCB",08-11-2025 15:00:00,24.5886166,73.6321397,OZONE,1.0,69.0,27.0
India,TamilNadu,Chengalpattu,"Crescent University, Chengalpattu - TNPCB",08-11-2025 15:00:00,12.8777316,80.0834807,OZONE,5.0,32.0,11.0
India,Telangana,Hyderabad,"Ramachandrapuram, Hyderabad - TSPCB",08-11-2025 15:00:00,17.528544,78.286195,NO2,8.0,11.0,9.0
India,Telangana,Hyderabad,"Ramachandrapuram, Hyderabad - TSPCB",08-11-2025 15:00:00,17.528544,78.286195,CO,28.0,41.0,32.0
India,Telangana,Hyderabad,"Sanathnagar, Hyderabad - TSPCB",08-11-2025 15:00:00,17.4559458,78.4332152,PM2.5,22.0,128.0,76.0
India,Telangana,Hyderabad,"Sanathnagar, Hyderabad - TSPCB",08-11-2025 15:00:00,17.4559458,78.4332152,NO2,26.0,29.0,28.0
India,Telangana,Hyderabad,"Sanathnagar, Hyderabad - TSPCB",08-11-2025 15:00:00,17.4559458,78.4332152,SO2,2.0,9.0,6.0
India,Telangana,Hyderabad,"Somajiguda, Hyderabad - TSPCB",08-11-2025 15:00:00,17.417094,78.457437,PM2.5,38.0,64.0,47.0
India,Telangana,Hyderabad,"Somajiguda, Hyderabad - TSPCB",08-11-2025 15:00:00,17.417094,78.457437,PM10,41.0,57.0,48.0
India,Telangana,Hyderabad,"Somajiguda, Hyderabad - TSPCB",08-11-2025 15:00:00,17.417094,78.457437,NH3,4.0,5.0,5.0
India,Telangana,Hyderabad,"Zoo Park, Hyderabad - TSPCB",08-11-2025 15:00:00,17.349694,78.451437,NO2,7.0,22.0,17.0
India,Uttar_Pradesh,Bulandshahr,"Yamunapuram, Bulandshahr - UPPCB",08-11-2025 15:00:00,28.406963,77.849831,SO2,17.0,68.0,30.0
India,Uttar_Pradesh,Firozabad,"Vibhab Nagar, Firozabad - UPPCB",08-11-2025 15:00:00,27.1594,78.3953,SO2,3.0,48.0,15.0
India,Uttar_Pradesh,Firozabad,"Vibhab Nagar, Firozabad - UPPCB",08-11-2025 15:00:00,27.1594,78.3953,CO,14.0,24.0,19.0
India,Uttar_Pradesh,Ghaziabad,"Indirapuram, Ghaziabad - UPPCB",08-11-2025 15:00:00,28.646233,77.358075,PM2.5,154.0,335.0,278.0
India,Uttar_Pradesh,Ghaziabad,"Indirapuram, Ghaziabad - UPPCB",08-11-2025 15:00:00,28.646233,77.358075,CO,31.0,108.0,74.0
India,Uttar_Pradesh,Ghaziabad,"Loni, Ghaziabad - UPPCB",08-11-2025 15:00:00,28.757294,77.278792,PM2.5,99.0,500.0,364.0
India,Uttar_Pradesh,Kanpur,"FTI Kidwai Nagar, Kanpur - UPPCB",08-11-2025 15:00:00,26.428282,80.327067,NO2,25.0,25.0,25.0
India,Uttar_Pradesh,Kanpur,"FTI Kidwai Nagar, Kanpur - UPPCB",08-11-2025 15:00:00,26.428282,80.327067,NH3,2.0,2.0,2.0
India,Uttar_Pradesh,Kanpur,"FTI Kidwai Nagar, Kanpur - UPPCB",08-11-2025 15:00:00,26.428282,80.327067,OZONE,21.0,24.0,21.0
India,Uttar_Pradesh,Kanpur,"NSI Kalyanpur, Kanpur - UPPCB",08-11-2025 15:00:00,26.509954,80.249612,PM2.5,83.0,350.0,266.0
India,Uttar_Pradesh,Kanpur,"NSI Kalyanpur, Kanpur - UPPCB",08-11-2025 15:00:00,26.509954,80.249612,PM10,115.0,267.0,181.0
India,Uttar_Pradesh,Kanpur,"NSI Kalyanpur, Kanpur - UPPCB",08-11-2025 15:00:00,26.509954,80.249612,NO2,22.0,22.0,22.0
India,Uttar_Pradesh,Kanpur,"NSI Kalyanpur, Kanpur - UPPCB",08-11-2025 15:00:00,26.509954,80.249612,CO,39.0,68.0,54.0
India,Uttar_Pradesh,Kanpur,"NSI Kalyanpur, Kanpur - UPPCB",08-11-2025 15:00:00,26.509954,80.249612,OZONE,16.0,18.0,17.0
India,Uttar_Pradesh,Baghpat,"Sardar Patel Inter College, Baghpat - UPPCB",08-11-2025 15:00:00,28.964949,77.278761,NH3,4.0,10.0,7.0
India,Uttar_Pradesh,Bareilly,"Civil Lines, Bareilly - UPPCB",08-11-2025 15:00:00,28.359581,79.414455,PM10,47.0,102.0,67.0
India,Uttar_Pradesh,Bareilly,"Civil Lines, Bareilly - UPPCB",08-11-2025 15:00:00,28.359581,79.414455,CO,56.0,108.0,71.0
India,Uttar_Pradesh,Bareilly,"Civil Lines, Bareilly - UPPCB",08-11-2025 15:00:00,28.359581,79.414455,OZONE,12.0,47.0,20.0
India,Uttar_Pradesh,Bareilly,"Rajendra Nagar, Bareilly - UPPCB",08-11-2025 15:00:00,28.38910936,79.42963708,PM10,64.0,144.0,113.0
India,Uttar_Pradesh,Bareilly,"Rajendra Nagar, Bareilly - UPPCB",08-11-2025 15:00:00,28.38910936,79.42963708,CO,22.0,66.0,35.0
India,Uttar_Pradesh,Ghaziabad,"Loni, Ghaziabad - UPPCB",08-11-2025 15:00:00,28.757294,77.278792,OZONE,8.0,74.0,39.0
India,Uttar_Pradesh,Ghaziabad,"Sanjay Nagar, Ghaziabad - UPPCB",08-11-2025 15:00:00,28.685382,77.453839,PM2.5,77.0,467.0,298.0
India,Uttar_Pradesh,Ghaziabad,"Vasundhara, Ghaziabad - UPPCB",08-11-2025 15:00:00,28.6603346,77.3572563,NH3,7.0,13.0,10.0
India,Uttar_Pradesh,Ghaziabad,"Vasundhara, Ghaziabad - UPPCB",08-11-2025 15:00:00,28.6603346,77.3572563,CO,23.0,120.0,79.0
India,Uttar_Pradesh,Gorakhpur,"Madan Mohan Malaviya University of Technology, Gorakhpur - UPPCB",08-11-2025 15:00:00,26.730136,83.433859,PM10,39.0,140.0,96.0
India,Uttar_Pradesh,Greater Noida,"Knowledge Park - III, Greater Noida - UPPCB",08-11-2025 15:00:00,28.47272,77.482,CO,36.0,114.0,76.0
India,Uttar_Pradesh,Greater Noida,"Knowledge Park - V, Greater Noida - UPPCB",08-11-2025 15:00:00,28.557054,77.453663,OZONE,16.0,36.0,24.0
India,Uttar_Pradesh,Jhansi,"Shivaji Nagar, Jhansi - UPPCB",08-11-2025 15:00:00,25.4547,78.6039,PM10,31.0,151.0,83.0
India,Uttar_Pradesh,Jhansi,"Shivaji Nagar, Jhansi - UPPCB",08-11-2025 15:00:00,25.4547,78.6039,NO2,6.0,6.0,6.0
India,Uttar_Pradesh,Kanpur,"FTI Kidwai Nagar, Kanpur - UPPCB",08-11-2025 15:00:00,26.428282,80.327067,PM10,88.0,272.0,179.0
India,Telangana,Hyderabad,"Central University, Hyderabad - TSPCB",08-11-2025 15:00:00,17.460103,78.334361,NH3,1.0,7.0,5.0
India,Telangana,Hyderabad,"Central University, Hyderabad - TSPCB",08-11-2025 15:00:00,17.460103,78.334361,SO2,1.0,7.0,4.0
India,Telangana,Hyderabad,"Central University, Hyderabad - TSPCB",08-11-2025 15:00:00,17.460103,78.334361,OZONE,4.0,21.0,17.0
India,Telangana,Hyderabad,"ECIL Kapra, Hyderabad - TSPCB",08-11-2025 15:00:00,17.470431,78.566959,OZONE,58.0,59.0,58.0
India,Telangana,Hyderabad,"ICRISAT Patancheru, Hyderabad - TSPCB",08-11-2025 15:00:00,17.5184,78.278777,CO,8.0,35.0,17.0
India,Telangana,Hyderabad,"Kokapet, Hyderabad - TSPCB",08-11-2025 15:00:00,17.393559,78.339194,NH3,3.0,4.0,3.0
India,Telangana,Hyderabad,"Kokapet, Hyderabad - TSPCB",08-11-2025 15:00:00,17.393559,78.339194,SO2,12.0,19.0,14.0
India,Telangana,Hyderabad,"Kompally Municipal Office, Hyderabad - TSPCB",08-11-2025 15:00:00,17.544899,78.486949,NO2,12.0,18.0,13.0
India,Telangana,Hyderabad,"New Malakpet, Hyderabad - TSPCB",08-11-2025 15:00:00,17.37206,78.50864,NO2,15.0,17.0,16.0
India,Telangana,Hyderabad,"New Malakpet, Hyderabad - TSPCB",08-11-2025 15:00:00,17.37206,78.50864,NH3,3.0,4.0,4.0
India,Uttar_Pradesh,Agra,"Rohta, Agra - UPPCB",08-11-2025 15:00:00,27.106972,78.000111,CO,30.0,57.0,35.0
India,Uttar_Pradesh,Agra,"Sector-3B Avas Vikas Colony, Agra - UPPCB",08-11-2025 15:00:00,27.19412,77.96237,PM2.5,22.0,302.0,104.0
India,Uttar_Pradesh,Agra,"Shahjahan Garden, Agra - UPPCB",08-11-2025 15:00:00,27.169338,78.03582,CO,14.0,83.0,23.0
India,Uttarakhand,Dehradun,"Doon University, Dehradun - UKPCB",08-11-2025 15:00:00,30.269444,78.044167,OZONE,22.0,60.0,43.0
India,Uttarakhand,Kashipur,"Govt. Girls Inter College, Kashipur - UKPCB",08-11-2025 15:00:00,29.2124114,78.9611753,PM10,77.0,171.0,135.0
India,Uttarakhand,Kashipur,"Govt. Girls Inter College, Kashipur - UKPCB",08-11-2025 15:00:00,29.2124114,78.9611753,NO2,9.0,59.0,18.0
India,Uttarakhand,Rishikesh,"Shivaji Nagar, Rishikesh - UKPCB",08-11-2025 15:00:00,30.075911,78.2859547,PM10,40.0,75.0,55.0
India,Uttarakhand,Rishikesh,"Shivaji Nagar, Rishikesh - UKPCB",08-11-2025 15:00:00,30.075911,78.2859547,NO2,11.0,14.0,12.0
India,Uttarakhand,Rishikesh,"Shivaji Nagar, Rishikesh - UKPCB",08-11-2025 15:00:00,30.075911,78.2859547,CO,14.0,36.0,20.0
India,West_Bengal,Asansol,"Asansol Court Area, Asansol - WBPCB",08-11-2025 15:00:00,23.685297,86.945968,NO2,16.0,28.0,23.0
India,West_Bengal,Asansol,"Evelyn Lodge, Asansol - WBPCB",08-11-2025 15:00:00,23.697936,86.944395,NH3,3.0,3.0,3.0
India,Uttar_Pradesh,Lucknow,"Kukrail Picnic Spot-1, Lucknow - UPPCB",08-11-2025 15:00:00,26.90723,80.98579,OZONE,10.0,36.0,25.0
India,Uttar_Pradesh,Lucknow,"Lalbagh, Lucknow - CPCB",08-11-2025 15:00:00,26.8458805,80.9365541,PM2.5,64.0,301.0,176.0
India,Uttar_Pradesh,Lucknow,"Lalbagh, Lucknow - CPCB",08-11-2025 15:00:00,26.8458805,80.9365541,NO2,11.0,65.0,44.0
India,Uttar_Pradesh,Lucknow,"Lalbagh, Lucknow - CPCB",08-11-2025 15:00:00,26.8458805,80.9365541,CO,2.0,57.0,25.0
India,Uttar_Pradesh,Lucknow,"Talkatora District Industries Center, Lucknow - CPCB",08-11-2025 15:00:00,26.83399722,80.8917361,NO2,41.0,59.0,47.0
India,Uttar_Pradesh,Lucknow,"Talkatora District Industries Center, Lucknow - CPCB",08-11-2025 15:00:00,26.83399722,80.8917361,NH3,8.0,14.0,10.0
India,Uttar_Pradesh,Meerut,"Ganga Nagar, Meerut - UPPCB",08-11-2025 15:00:00,28.999264,77.7590354,SO2,3.0,36.0,24.0
India,Uttar_Pradesh,Meerut,"Jai Bhim Nagar, Meerut - UPPCB",08-11-2025 15:00:00,28.9535882,77.7622941,NO2,29.0,108.0,66.0
India,Uttar_Pradesh,Khurja,"Kalindi Kunj, Khurja - UPPCB",08-11-2025 15:00:00,28.2348927,77.8683002,PM2.5,113.0,408.0,287.0
India,Uttar_Pradesh,Khurja,"Kalindi Kunj, Khurja - UPPCB",08-11-2025 15:00:00,28.2348927,77.8683002,NH3,1.0,1.0,1.0
India,Uttar_Pradesh,Khurja,"Kalindi Kunj, Khurja - UPPCB",08-11-2025 15:00:00,28.2348927,77.8683002,SO2,14.0,15.0,15.0
India,Uttar_Pradesh,Lucknow,"B R Ambedkar University, Lucknow - UPPCB",08-11-2025 15:00:00,26.766433,80.927299,SO2,25.0,26.0,25.0
India,Uttar_Pradesh,Lucknow,"Gomti Nagar, Lucknow - UPPCB",08-11-2025 15:00:00,26.86812,81.005119,CO,32.0,40.0,37.0
India,Uttar_Pradesh,Lucknow,"Gomti Nagar, Lucknow - UPPCB",08-11-2025 15:00:00,26.86812,81.005119,OZONE,29.0,42.0,37.0
India,Uttar_Pradesh,Lucknow,"Kendriya Vidyalaya, Lucknow - CPCB",08-11-2025 15:00:00,26.906111,80.948222,NO2,28.0,50.0,40.0
India,Uttar_Pradesh,Lucknow,"Kendriya Vidyalaya, Lucknow - CPCB",08-11-2025 15:00:00,26.906111,80.948222,CO,19.0,77.0,40.0
India,Uttar_Pradesh,Lucknow,"Kendriya Vidyalaya, Lucknow - CPCB",08-11-2025 15:00:00,26.906111,80.948222,OZONE,10.0,79.0,42.0
India,Uttar_Pradesh,Varanasi,"Bhelupur, Varanasi - UPPCB",08-11-2025 15:00:00,25.301778,82.996789,NO2,8.0,8.0,8.0
India,Uttar_Pradesh,Varanasi,"Bhelupur, Varanasi - UPPCB",08-11-2025 15:00:00,25.301778,82.996789,NH3,1.0,1.0,1.0
India,Uttar_Pradesh,Varanasi,"IESD Banaras Hindu University, Varanasi - UPPCB",08-11-2025 15:00:00,25.262326,82.995408,PM2.5,20.0,82.0,44.0
India,Uttar_Pradesh,Varanasi,"IESD Banaras Hindu University, Varanasi - UPPCB",08-11-2025 15:00:00,25.262326,82.995408,PM10,38.0,121.0,82.0
India,Uttar_Pradesh,Varanasi,"IESD Banaras Hindu University, Varanasi - UPPCB",08-11-2025 15:00:00,25.262326,82.995408,SO2,23.0,33.0,26.0
India,Uttar_Pradesh,Varanasi,"IESD Banaras Hindu University, Varanasi - UPPCB",08-11-2025 15:00:00,25.262326,82.995408,CO,6.0,26.0,9.0
India,Uttar_Pradesh,Varanasi,"Maldahiya, Varanasi - UPPCB",08-11-2025 15:00:00,25.32393,82.99687,SO2,28.0,29.0,29.0
India,Uttar_Pradesh,Varanasi,"Maldahiya, Varanasi - UPPCB",08-11-2025 15:00:00,25.32393,82.99687,CO,14.0,29.0,17.0
India,Uttar_Pradesh,Vrindavan,"Omex Eternity, Vrindavan - UPPCB",08-11-2025 15:00:00,27.571409,77.655757,SO2,10.0,19.0,11.0
India,West_Bengal,Asansol,"Mahabir Colliery, Asansol - WBPCB",08-11-2025 15:00:00,23.618183,87.105718,CO,8.0,45.0,14.0
India,West_Bengal,Asansol,"Trivenidevi Bhalotia College, Asansol - WBPCB",08-11-2025 15:00:00,23.616515,87.119133,NO2,11.0,48.0,20.0
India,West_Bengal,Asansol,"Trivenidevi Bhalotia College, Asansol - WBPCB",08-11-2025 15:00:00,23.616515,87.119133,NH3,2.0,4.0,3.0
India,West_Bengal,Barrackpore,"SVSPA Campus, Barrackpore - WBPCB",08-11-2025 15:00:00,22.7605581,88.3617589,SO2,9.0,13.0,11.0
India,West_Bengal,Durgapur,"Mahishkapur Road_B-Zone, Durgapur - WBPCB",08-11-2025 15:00:00,23.567923,87.306843,PM2.5,33.0,81.0,50.0
India,West_Bengal,Durgapur,"Mahishkapur Road_B-Zone, Durgapur - WBPCB",08-11-2025 15:00:00,23.567923,87.306843,NO2,8.0,44.0,18.0
India,Uttar_Pradesh,Prayagraj,"Jhunsi, Prayagraj - UPPCB",08-11-2025 15:00:00,25.425602,81.917152,PM10,62.0,170.0,110.0
India,Uttar_Pradesh,Prayagraj,"Motilal Nehru NIT, Prayagraj - UPPCB",08-11-2025 15:00:00,25.494,81.863,NO2,12.0,12.0,12.0
India,Uttar_Pradesh,Prayagraj,"Nagar Nigam, Prayagraj - UPPCB",08-11-2025 15:00:00,25.44919916,81.82735986,PM10,64.0,259.0,130.0
India,Uttar_Pradesh,Prayagraj,"Nagar Nigam, Prayagraj - UPPCB",08-11-2025 15:00:00,25.44919916,81.82735986,NO2,5.0,5.0,5.0
India,Uttar_Pradesh,Prayagraj,"Nagar Nigam, Prayagraj - UPPCB",08-11-2025 15:00:00,25.44919916,81.82735986,CO,22.0,78.0,31.0
India,Uttar_Pradesh,Varanasi,"Ardhali Bazar, Varanasi - UPPCB",08-11-2025 15:00:00,25.3505986,82.9083074,SO2,18.0,19.0,18.0
India,Uttar_Pradesh,Varanasi,"Ardhali Bazar, Varanasi - UPPCB",08-11-2025 15:00:00,25.3505986,82.9083074,CO,8.0,15.0,10.0
India,Uttar_Pradesh,Meerut,"Pallavpuram Phase 2, Meerut - UPPCB",08-11-2025 15:00:00,29.06351,77.709723,PM2.5,67.0,450.0,314.0
India,Uttar_Pradesh,Meerut,"Pallavpuram Phase 2, Meerut - UPPCB",08-11-2025 15:00:00,29.06351,77.709723,SO2,11.0,35.0,22.0
India,Uttar_Pradesh,Meerut,"Pallavpuram Phase 2, Meerut - UPPCB",08-11-2025 15:00:00,29.06351,77.709723,CO,4.0,66.0,28.0
India,Uttar_Pradesh,Moradabad,"Eco Herbal Park, Moradabad - UPPCB",08-11-2025 15:00:00,28.840739,78.697531,SO2,7.0,34.0,19.0
India,Uttar_Pradesh,Moradabad,"Eco Herbal Park, Moradabad - UPPCB",08-11-2025 15:00:00,28.840739,78.697531,OZONE,20.0,142.0,70.0
India,Uttar_Pradesh,Moradabad,"Employment Office, Moradabad - UPPCB",08-11-2025 15:00:00,28.88528,78.7388,NO2,15.0,16.0,16.0
India,Uttar_Pradesh,Moradabad,"Employment Office, Moradabad - UPPCB",08-11-2025 15:00:00,28.88528,78.7388,NH3,4.0,4.0,4.0
India,Uttar_Pradesh,Moradabad,"Jigar Colony, Moradabad - UPPCB",08-11-2025 15:00:00,28.856664,78.772638,PM2.5,77.0,303.0,170.0
India,Uttar_Pradesh,Moradabad,"Transport Nagar, Moradabad - UPPCB",08-11-2025 15:00:00,28.802625,78.753728,NO2,29.0,30.0,30.0
India,Uttar_Pradesh,Moradabad,"Transport Nagar, Moradabad - UPPCB",08-11-2025 15:00:00,28.802625,78.753728,NH3,5.0,6.0,5.0
India,Uttar_Pradesh,Noida,"Sector - 125, Noida - UPPCB",08-11-2025 15:00:00,28.5447608,77.3231257,PM10,154.0,425.0,286.0
India,Uttar_Pradesh,Noida,"Sector - 125, Noida - UPPCB",08-11-2025 15:00:00,28.5447608,77.3231257,SO2,16.0,31.0,22.0
India,West_Bengal,Durgapur,"Mahishkapur Road_B-Zone, Durgapur - WBPCB",08-11-2025 15:00:00,23.567923,87.306843,CO,2.0,40.0,21.0
India,West_Bengal,Durgapur,"PCBL Residential Complex, Durgapur - WBPCB",08-11-2025 15:00:00,23.508764,87.35444,PM2.5,39.0,86.0,56.0
India,West_Bengal,Durgapur,"Womens College_City Center, Durgapur - WBPCB (Formerly known as Sidhu Kanhu Indoor Stadium)",08-11-2025 15:00:00,23.549395,87.300496,PM10,79.0,111.0,90.0
India,West_Bengal,Durgapur,"Womens College_City Center, Durgapur - WBPCB (Formerly known as Sidhu Kanhu Indoor Stadium)",08-11-2025 15:00:00,23.549395,87.300496,NO2,28.0,33.0,29.0
India,West_Bengal,Durgapur,"Womens College_City Center, Durgapur - WBPCB (Formerly known as Sidhu Kanhu Indoor Stadium)",08-11-2025 15:00:00,23.549395,87.300496,SO2,21.0,63.0,32.0
India,West_Bengal,Durgapur,"Womens College_City Center, Durgapur - WBPCB (Formerly known as Sidhu Kanhu Indoor Stadium)",08-11-2025 15:00:00,23.549395,87.300496,CO,20.0,34.0,23.0
India,West_Bengal,Haldia,"Priyambada Housing Estate, Haldia - WBPCB",08-11-2025 15:00:00,22.06047,88.109737,NO2,12.0,22.0,16.0
India,West_Bengal,Haldia,"Priyambada Housing Estate, Haldia - WBPCB",08-11-2025 15:00:00,22.06047,88.109737,SO2,13.0,20.0,16.0
India,West_Bengal,Howrah,"Belur Math, Howrah - WBPCB",08-11-2025 15:00:00,22.629801,88.352017,PM10,101.0,142.0,122.0
India,West_Bengal,Howrah,"Belur Math, Howrah - WBPCB",08-11-2025 15:00:00,22.629801,88.352017,NO2,21.0,51.0,32.0
India,West_Bengal,Howrah,"Belur Math, Howrah - WBPCB",08-11-2025 15:00:00,22.629801,88.352017,OZONE,14.0,35.0,30.0
India,West_Bengal,Howrah,"Dasnagar, Howrah - WBPCB",08-11-2025 15:00:00,22.6025571,88.3105664,PM10,57.0,116.0,91.0
India,West_Bengal,Kolkata,"Ballygunge, Kolkata - WBPCB",08-11-2025 15:00:00,22.5367507,88.3638022,CO,13.0,57.0,13.0
India,West_Bengal,Kolkata,"Jadavpur, Kolkata - WBPCB",08-11-2025 15:00:00,22.49929,88.36917,PM2.5,113.0,273.0,199.0
India,West_Bengal,Kolkata,"Rabindra Bharati University, Kolkata - WBPCB",08-11-2025 15:00:00,22.627847,88.380669,PM10,69.0,106.0,90.0
India,West_Bengal,Kolkata,"Rabindra Sarobar, Kolkata - WBPCB",08-11-2025 15:00:00,22.51106,88.35142,PM10,65.0,105.0,86.0
India,West_Bengal,Kolkata,"Victoria, Kolkata - WBPCB",08-11-2025 15:00:00,22.5448082,88.3403691,PM2.5,98.0,266.0,181.0
India,West_Bengal,Siliguri,"Ward-32 Bapupara, Siliguri - WBPCB",08-11-2025 15:00:00,26.6879226,88.4152495,SO2,11.0,12.0,12.0
India,West_Bengal,Siliguri,"Ward-32 Bapupara, Siliguri - WBPCB",08-11-2025 15:00:00,26.6879226,88.4152495,OZONE,16.0,78.0,53.0
India,Andhra_Pradesh,Vijayawada,"HB Colony, Vijayawada - APPCB",08-11-2025 15:00:00,16.536107,80.594233,NO2,24.0,24.0,24.0
India,Andhra_Pradesh,Vijayawada,"HB Colony, Vijayawada - APPCB",08-11-2025 15:00:00,16.536107,80.594233,OZONE,18.0,48.0,43.0
India,Andhra_Pradesh,Vijayawada,"Rajiv Gandhi Park, Vijayawada - APPCB",08-11-2025 15:00:00,16.509717,80.612222,NO2,43.0,64.0,53.0
India,Andhra_Pradesh,Vijayawada,"Rajiv Gandhi Park, Vijayawada - APPCB",08-11-2025 15:00:00,16.509717,80.612222,SO2,15.0,18.0,16.0
India,Andhra_Pradesh,Vijayawada,"Rajiv Gandhi Park, Vijayawada - APPCB",08-11-2025 15:00:00,16.509717,80.612222,CO,34.0,34.0,34.0
India,Andhra_Pradesh,Vijayawada,"Rajiv Nagar, Vijayawada - APPCB",08-11-2025 15:00:00,16.554731,80.64911,NO2,,,
India,Andhra_Pradesh,Vijayawada,"Rajiv Nagar, Vijayawada - APPCB",08-11-2025 15:00:00,16.554731,80.64911,SO2,,,
India,Andhra_Pradesh,Visakhapatnam,"GVM Corporation, Visakhapatnam - APPCB",08-11-2025 15:00:00,17.72,83.3,PM10,99.0,431.0,193.0
India,Bihar,Araria,"Kharahiya Basti, Araria - BSPCB",08-11-2025 15:00:00,26.146529,87.454184,SO2,17.0,21.0,19.0
India,Bihar,Arrah,"New DM Office, Arrah - BSPCB",08-11-2025 15:00:00,25.5626095,84.663264,PM2.5,33.0,58.0,44.0
India,Bihar,Arrah,"New DM Office, Arrah - BSPCB",08-11-2025 15:00:00,25.5626095,84.663264,PM10,32.0,50.0,40.0
India,Bihar,Arrah,"New DM Office, Arrah - BSPCB",08-11-2025 15:00:00,25.5626095,84.663264,CO,38.0,74.0,56.0
India,Bihar,Aurangabad,"Gurdeo Nagar, Aurangabad - BSPCB",08-11-2025 15:00:00,24.75746,84.366208,NH3,1.0,2.0,1.0
India,Bihar,Aurangabad,"Gurdeo Nagar, Aurangabad - BSPCB",08-11-2025 15:00:00,24.75746,84.366208,CO,100.0,103.0,102.0
India,Bihar,Begusarai,"Lohiyanagar, Begusarai - BSPCB",08-11-2025 15:00:00,25.42742023,86.13886079,SO2,36.0,49.0,42.0
India,Bihar,Katihar,"Mirchaibari, Katihar - BSPCB",08-11-2025 15:00:00,25.560083,87.553265,PM10,40.0,84.0,54.0
India,Bihar,Manguraha,"Forest Rest House, Manguraha - BSPCB",08-11-2025 15:00:00,27.308328,84.531742,PM2.5,32.0,267.0,97.0
India,Bihar,Manguraha,"Forest Rest House, Manguraha - BSPCB",08-11-2025 15:00:00,27.308328,84.531742,PM10,38.0,203.0,109.0
India,Bihar,Manguraha,"Forest Rest House, Manguraha - BSPCB",08-11-2025 15:00:00,27.308328,84.531742,CO,31.0,34.0,34.0
India,Bihar,Motihari,"Gandak Colony, Motihari - BSPCB",08-11-2025 15:00:00,26.63086,84.90051,PM2.5,20.0,177.0,44.0
India,Bihar,Motihari,"Gandak Colony, Motihari - BSPCB",08-11-2025 15:00:00,26.63086,84.90051,PM10,68.0,197.0,94.0
India,Bihar,Motihari,"Gandak Colony, Motihari - BSPCB",08-11-2025 15:00:00,26.63086,84.90051,NH3,3.0,3.0,3.0
India,Bihar,Motihari,"Gandak Colony, Motihari - BSPCB",08-11-2025 15:00:00,26.63086,84.90051,SO2,2.0,3.0,3.0
India,Bihar,Bhagalpur,"DM Office_Kachari Chowk, Bhagalpur - BSPCB",08-11-2025 15:00:00,25.251013,86.989001,NO2,6.0,10.0,8.0
India,Bihar,Bhagalpur,"DM Office_Kachari Chowk, Bhagalpur - BSPCB",08-11-2025 15:00:00,25.251013,86.989001,CO,7.0,20.0,19.0
India,Bihar,Bhagalpur,"Mayaganj, Bhagalpur - BSPCB",08-11-2025 15:00:00,25.265194,87.012947,NH3,5.0,11.0,7.0
India,Bihar,Bihar Sharif,"D M Colony, Bihar Sharif - BSPCB",08-11-2025 15:00:00,25.204762,85.51496,PM2.5,,,
India,Bihar,Buxar,"Charitra Van, Buxar - BSPCB",08-11-2025 15:00:00,25.56752,83.966379,PM2.5,53.0,82.0,74.0
India,Bihar,Chhapra,"Darshan Nagar, Chhapra - BSPCB",08-11-2025 15:00:00,25.7808257,84.7446768,SO2,19.0,21.0,20.0
India,Bihar,Chhapra,"Darshan Nagar, Chhapra - BSPCB",08-11-2025 15:00:00,25.7808257,84.7446768,OZONE,17.0,35.0,22.0
India,Bihar,Gaya,"Collectorate, Gaya - BSPCB",08-11-2025 15:00:00,24.7955,84.9994,PM2.5,58.0,252.0,141.0
India,Bihar,Gaya,"Collectorate, Gaya - BSPCB",08-11-2025 15:00:00,24.7955,84.9994,SO2,10.0,17.0,11.0
India,Bihar,Gaya,"Collectorate, Gaya - BSPCB",08-11-2025 15:00:00,24.7955,84.9994,CO,44.0,81.0,44.0
India,Bihar,Gaya,"Kareemganj, Gaya - BSPCB",08-11-2025 15:00:00,24.792403,84.992416,PM2.5,43.0,317.0,120.0
India,Bihar,Gaya,"SFTI Kusdihra, Gaya - BSPCB",08-11-2025 15:00:00,24.762518,84.982348,OZONE,12.0,36.0,24.0
India,Assam,Byrnihat,"Central Academy for SFS, Byrnihat - PCBA",08-11-2025 15:00:00,26.071318,91.87488,OZONE,20.0,37.0,27.0
India,Assam,Guwahati,"IITG, Guwahati - PCBA",08-11-2025 15:00:00,26.2028636,91.70046436,PM2.5,17.0,234.0,60.0
India,Assam,Guwahati,"LGBI Airport, Guwahati - PCBA",08-11-2025 15:00:00,26.10887,91.589544,PM10,38.0,89.0,67.0
India,Assam,Guwahati,"Pan Bazaar, Guwahati - PCBA",08-11-2025 15:00:00,26.1875,91.744194,SO2,43.0,81.0,60.0
India,Assam,Guwahati,"Railway Colony, Guwahati - PCBA",08-11-2025 15:00:00,26.181742,91.78063,PM10,24.0,118.0,68.0
India,Andhra_Pradesh,Kadapa,"Yerramukkapalli, Kadapa - APPCB",08-11-2025 15:00:00,14.465052,78.824187,PM2.5,,,
India,Andhra_Pradesh,Rajamahendravaram,"Anand Kala Kshetram, Rajamahendravaram - APPCB",08-11-2025 15:00:00,16.9872867,81.7363176,CO,26.0,30.0,28.0
India,Andhra_Pradesh,Tirumala,"Toll Gate, Tirumala - APPCB",08-11-2025 15:00:00,13.67,79.35,NH3,1.0,2.0,1.0
India,Andhra_Pradesh,Tirupati,"Vaikuntapuram, Tirupati - APPCB",08-11-2025 15:00:00,13.615387,79.40923,NH3,2.0,7.0,4.0
India,Assam,Nagaon,"Christianpatty, Nagaon - PCBA",08-11-2025 15:00:00,26.349082,92.68449,PM10,,,
India,Assam,Nagaon,"Christianpatty, Nagaon - PCBA",08-11-2025 15:00:00,26.349082,92.68449,SO2,10.0,14.0,12.0
India,Assam,Nagaon,"Christianpatty, Nagaon - PCBA",08-11-2025 15:00:00,26.349082,92.68449,OZONE,9.0,9.0,9.0
India,Assam,Silchar,"Tarapur, Silchar - PCBA",08-11-2025 15:00:00,24.82827,92.79525,PM2.5,36.0,50.0,41.0
India,Assam,Silchar,"Tarapur, Silchar - PCBA",08-11-2025 15:00:00,24.82827,92.79525,NO2,14.0,18.0,18.0
India,Andaman and Nicobar,Sri Vijaya Puram,"Police Line, Sri Vijaya Puram - ANPCC",08-11-2025 15:00:00,11.654054,92.734055,PM2.5,,,
India,Andaman and Nicobar,Sri Vijaya Puram,"Police Line, Sri Vijaya Puram - ANPCC",08-11-2025 15:00:00,11.654054,92.734055,SO2,,,
India,Andhra_Pradesh,Chittoor,"Gangineni Cheruvu, Chittoor - APPCB",08-11-2025 15:00:00,13.20488,79.097889,PM2.5,,,
India,Andhra_Pradesh,Chittoor,"Gangineni Cheruvu, Chittoor - APPCB",08-11-2025 15:00:00,13.20488,79.097889,PM10,,,
India,Bihar,Munger,"Town Hall, Munger - BSPCB",08-11-2025 15:00:00,25.376776,86.471523,PM10,55.0,94.0,75.0
India,Bihar,Patna,"DRM Office Danapur, Patna - BSPCB",08-11-2025 15:00:00,25.586562,85.043586,NH3,6.0,8.0,7.0
India,Bihar,Patna,"DRM Office Danapur, Patna - BSPCB",08-11-2025 15:00:00,25.586562,85.043586,SO2,8.0,10.0,9.0
India,Bihar,Patna,"DRM Office Danapur, Patna - BSPCB",08-11-2025 15:00:00,25.586562,85.043586,CO,28.0,56.0,50.0
India,Bihar,Patna,"Govt. High School Shikarpur, Patna - BSPCB",08-11-2025 15:00:00,25.592539,85.227158,PM10,69.0,107.0,91.0
India,Bihar,Patna,"Govt. High School Shikarpur, Patna - BSPCB",08-11-2025 15:00:00,25.592539,85.227158,NO2,9.0,16.0,13.0
India,Bihar,Patna,"Govt. High School Shikarpur, Patna - BSPCB",08-11-2025 15:00:00,25.592539,85.227158,SO2,9.0,59.0,12.0
India,Bihar,Patna,"IGSC Planetarium Complex, Patna - BSPCB",08-11-2025 15:00:00,25.610369,85.132568,SO2,20.0,27.0,23.0
India,Bihar,Patna,"Rajbansi Nagar, Patna - BSPCB",08-11-2025 15:00:00,25.599486,85.113666,NO2,31.0,92.0,49.0
India,Bihar,Patna,"Rajbansi Nagar, Patna - BSPCB",08-11-2025 15:00:00,25.599486,85.113666,CO,16.0,64.0,26.0
India,Chandigarh,Chandigarh,"Sector-53, Chandigarh - CPCC",08-11-2025 15:00:00,30.719859,76.738637,NO2,16.0,166.0,62.0
India,Chhattisgarh,Bhilai,"32Bungalows, Bhilai - CECB",08-11-2025 15:00:00,21.194815,81.31477,NH3,5.0,5.0,5.0
India,Chhattisgarh,Bhilai,"Civic Center, Bhilai - Bhilai Steel Plant",08-11-2025 15:00:00,21.185571,81.343175,PM10,30.0,158.0,54.0
India,Chhattisgarh,Bhilai,"Civic Center, Bhilai - Bhilai Steel Plant",08-11-2025 15:00:00,21.185571,81.343175,NH3,3.0,3.0,3.0
India,Chhattisgarh,Bhilai,"Hathkhoj, Bhilai - CECB",08-11-2025 15:00:00,21.224231,81.40835,PM10,29.0,96.0,57.0
India,Chhattisgarh,Bhilai,"Hathkhoj, Bhilai - CECB",08-11-2025 15:00:00,21.224231,81.40835,CO,4.0,48.0,18.0
India,Chhattisgarh,Bhilai,"Hathkhoj, Bhilai - CECB",08-11-2025 15:00:00,21.224231,81.40835,OZONE,15.0,56.0,43.0
India,Chhattisgarh,Raipur,"Krishak Nagar, Raipur - CECB",08-11-2025 15:00:00,21.237755,81.705301,NH3,2.0,3.0,2.0
India,Chhattisgarh,Raipur,"Siltara Phase-II, Raipur - CECB",08-11-2025 15:00:00,21.371751,81.664929,PM10,43.0,153.0,96.0
India,Chhattisgarh,Raipur,"Siltara Phase-II, Raipur - CECB",08-11-2025 15:00:00,21.371751,81.664929,CO,34.0,36.0,35.0
India,Chhattisgarh,Raipur,"Siltara Phase-II, Raipur - CECB",08-11-2025 15:00:00,21.371751,81.664929,OZONE,3.0,10.0,7.0
India,Chhattisgarh,Tumidih,"OP Jindal Industrial Park, Tumidih - CECB",08-11-2025 15:00:00,22.06631475,83.33820077,PM2.5,29.0,57.0,42.0
India,Delhi,Delhi,"Anand Vihar, Delhi - DPCC",08-11-2025 15:00:00,28.647622,77.315809,NH3,9.0,11.0,10.0
India,Bihar,Patna,"Samanpura, Patna - BSPCB",08-11-2025 15:00:00,25.596727,85.085624,NO2,37.0,49.0,44.0
India,Bihar,Purnia,"Mariam Nagar, Purnia - BSPCB",08-11-2025 15:00:00,25.366336,87.117468,PM10,46.0,87.0,70.0
India,Bihar,Purnia,"Mariam Nagar, Purnia - BSPCB",08-11-2025 15:00:00,25.366336,87.117468,NO2,5.0,6.0,6.0
India,Bihar,Purnia,"Mariam Nagar, Purnia - BSPCB",08-11-2025 15:00:00,25.366336,87.117468,SO2,16.0,17.0,17.0
India,Bihar,Rajgir,"Dangi Tola, Rajgir - BSPCB",08-11-2025 15:00:00,25.0328,85.41948,NH3,6.0,7.0,6.0
India,Bihar,Saharsa,"Police Line, Saharsa - BSPCB",08-11-2025 15:00:00,25.892357,86.590325,PM10,12.0,73.0,40.0
India,Bihar,Saharsa,"Police Line, Saharsa - BSPCB",08-11-2025 15:00:00,25.892357,86.590325,NO2,6.0,7.0,7.0
India,Bihar,Siwan,"Chitragupta Nagar, Siwan - BSPCB",08-11-2025 15:00:00,26.2271665,84.3570427,NH3,1.0,1.0,1.0
India,Bihar,Siwan,"Chitragupta Nagar, Siwan - BSPCB",08-11-2025 15:00:00,26.2271665,84.3570427,SO2,8.0,8.0,8.0
India,Bihar,Siwan,"Chitragupta Nagar, Siwan - BSPCB",08-11-2025 15:00:00,26.2271665,84.3570427,OZONE,13.0,14.0,14.0
India,Chandigarh,Chandigarh,"Sector 22, Chandigarh - CPCC",08-11-2025 15:00:00,30.735567,76.775714,PM10,72.0,154.0,104.0
India,Chandigarh,Chandigarh,"Sector-25, Chandigarh - CPCC",08-11-2025 15:00:00,30.751462,76.762879,NH3,9.0,19.0,12.0
India,Chandigarh,Chandigarh,"Sector-25, Chandigarh - CPCC",08-11-2025 15:00:00,30.751462,76.762879,SO2,5.0,12.0,8.0
India,Delhi,Delhi,"Anand Vihar, Delhi - DPCC",08-11-2025 15:00:00,28.647622,77.315809,OZONE,20.0,90.0,74.0
India,Delhi,Delhi,"Ashok Vihar, Delhi - DPCC",08-11-2025 15:00:00,28.695381,77.181665,NO2,33.0,142.0,81.0
India,Delhi,Delhi,"Aya Nagar, Delhi - IMD",08-11-2025 15:00:00,28.4706914,77.1099364,NO2,16.0,53.0,33.0
India,Delhi,Delhi,"Bawana, Delhi - DPCC",08-11-2025 15:00:00,28.7762,77.051074,PM10,159.0,460.0,344.0
India,Delhi,Delhi,"Bawana, Delhi - DPCC",08-11-2025 15:00:00,28.7762,77.051074,NH3,5.0,7.0,6.0
India,Chhattisgarh,Kunjemura,"OP Jindal School, Kunjemura - CECB",08-11-2025 15:00:00,22.12665,83.483212,OZONE,5.0,40.0,25.0
India,Chhattisgarh,Milupara,"Govt. Higher Secondary School, Milupara - CECB",08-11-2025 15:00:00,22.1910172,83.5197009,NH3,1.0,2.0,2.0
India,Chhattisgarh,Raipur,"AIIMS, Raipur - CECB",08-11-2025 15:00:00,21.258815,81.578979,CO,27.0,60.0,34.0
India,Chhattisgarh,Raipur,"AIIMS, Raipur - CECB",08-11-2025 15:00:00,21.258815,81.578979,OZONE,5.0,12.0,8.0
India,Chhattisgarh,Bilaspur,"Mangala, Bilaspur - NTPC",08-11-2025 15:00:00,22.08815,82.13737,PM10,49.0,103.0,78.0
India,Chhattisgarh,Chhal,"Nawapara SECL Colony, Chhal - CECB",08-11-2025 15:00:00,22.118125,83.140608,OZONE,13.0,181.0,98.0
India,Chhattisgarh,Korba,"Urja Nagar, Korba - CECB",08-11-2025 15:00:00,22.348441,82.549611,CO,12.0,24.0,21.0
India,Delhi,Delhi,"CRRI Mathura Road, Delhi - IMD",08-11-2025 15:00:00,28.5512005,77.2735737,NO2,45.0,143.0,66.0
India,Delhi,Delhi,"Chandni Chowk, Delhi - IITM",08-11-2025 15:00:00,28.656756,77.227234,NO2,26.0,63.0,43.0
India,Delhi,Delhi,"R K Puram, Delhi - DPCC",08-11-2025 15:00:00,28.563262,77.186937,SO2,16.0,41.0,28.0
India,Delhi,Delhi,"Shadipur, Delhi - CPCB",08-11-2025 15:00:00,28.6514781,77.1473105,PM2.5,176.0,277.0,200.0
India,Delhi,Delhi,"Shadipur, Delhi - CPCB",08-11-2025 15:00:00,28.6514781,77.1473105,NO2,49.0,180.0,83.0
India,Delhi,Delhi,"Shadipur, Delhi - CPCB",08-11-2025 15:00:00,28.6514781,77.1473105,CO,34.0,112.0,65.0
India,Delhi,Delhi,"Sirifort, Delhi - CPCB",08-11-2025 15:00:00,28.5504249,77.2159377,PM2.5,223.0,488.0,363.0
India,Delhi,Delhi,"Sirifort, Delhi - CPCB",08-11-2025 15:00:00,28.5504249,77.2159377,PM10,163.0,442.0,319.0
India,Delhi,Delhi,"Sonia Vihar, Delhi - DPCC",08-11-2025 15:00:00,28.710508,77.249485,PM10,144.0,500.0,336.0
India,Delhi,Delhi,"Dwarka-Sector 8, Delhi - DPCC ",08-11-2025 15:00:00,28.5710274,77.0719006,CO,37.0,126.0,63.0
India,Delhi,Delhi,"Dwarka-Sector 8, Delhi - DPCC ",08-11-2025 15:00:00,28.5710274,77.0719006,OZONE,2.0,174.0,174.0
India,Delhi,Delhi,"IGI Airport (T3), Delhi - IMD",08-11-2025 15:00:00,28.5627763,77.1180053,NO2,91.0,210.0,156.0
India,Delhi,Delhi,"IHBAS, Dilshad Garden, Delhi - CPCB",08-11-2025 15:00:00,28.6811736,77.3025234,PM2.5,85.0,285.0,153.0
India,Delhi,Delhi,"IHBAS, Dilshad Garden, Delhi - CPCB",08-11-2025 15:00:00,28.6811736,77.3025234,OZONE,2.0,64.0,39.0
India,Delhi,Delhi,"ITO, Delhi - CPCB",08-11-2025 15:00:00,28.628624,77.24106,SO2,7.0,19.0,14.0
India,Delhi,Delhi,"Vivek Vihar, Delhi - DPCC",08-11-2025 15:00:00,28.672342,77.31526,PM10,187.0,500.0,351.0
India,Delhi,Delhi,"Vivek Vihar, Delhi - DPCC",08-11-2025 15:00:00,28.672342,77.31526,NO2,37.0,145.0,82.0
India,Delhi,Delhi,"Vivek Vihar, Delhi - DPCC",08-11-2025 15:00:00,28.672342,77.31526,CO,65.0,109.0,86.0
India,Delhi,Delhi,"Wazirpur, Delhi - DPCC",08-11-2025 15:00:00,28.699793,77.165453,PM10,194.0,500.0,410.0
India,Gujarat,Ahmedabad,"Chandkheda, Ahmedabad - IITM",08-11-2025 15:00:00,23.107969,72.574648,PM2.5,33.0,160.0,83.0
India,Gujarat,Ahmedabad,"Chandkheda, Ahmedabad - IITM",08-11-2025 15:00:00,23.107969,72.574648,NH3,3.0,32.0,13.0
India,Delhi,Delhi,"Patparganj, Delhi - DPCC",08-11-2025 15:00:00,28.623763,77.287209,SO2,7.0,10.0,8.0
India,Delhi,Delhi,"Punjabi Bagh, Delhi - DPCC",08-11-2025 15:00:00,28.674045,77.131023,PM2.5,187.0,500.0,393.0
India,Delhi,Delhi,"Punjabi Bagh, Delhi - DPCC",08-11-2025 15:00:00,28.674045,77.131023,NH3,4.0,5.0,4.0
India,Delhi,Delhi,"Punjabi Bagh, Delhi - DPCC",08-11-2025 15:00:00,28.674045,77.131023,SO2,1.0,34.0,9.0
India,Delhi,Delhi,"Punjabi Bagh, Delhi - DPCC",08-11-2025 15:00:00,28.674045,77.131023,CO,37.0,108.0,52.0
India,Delhi,Delhi,"R K Puram, Delhi - DPCC",08-11-2025 15:00:00,28.563262,77.186937,PM2.5,193.0,481.0,354.0
India,Delhi,Delhi,"R K Puram, Delhi - DPCC",08-11-2025 15:00:00,28.563262,77.186937,NH3,4.0,6.0,4.0
India,Gujarat,Ahmedabad,"SAC ISRO Satellite, Ahmedabad - IITM",08-11-2025 15:00:00,23.023389,72.515201,PM2.5,59.0,232.0,120.0
India,Gujarat,Ahmedabad,"SAC ISRO Satellite, Ahmedabad - IITM",08-11-2025 15:00:00,23.023389,72.515201,NH3,3.0,19.0,9.0
India,Gujarat,Ankleshwar,"GIDC, Ankleshwar - GPCB",08-11-2025 15:00:00,21.613267,73.010555,PM2.5,69.0,215.0,131.0
India,Gujarat,Ankleshwar,"GIDC, Ankleshwar - GPCB",08-11-2025 15:00:00,21.613267,73.010555,NO2,23.0,24.0,24.0
India,Gujarat,Ankleshwar,"GIDC, Ankleshwar - GPCB",08-11-2025 15:00:00,21.613267,73.010555,NH3,4.0,4.0,4.0
India,Gujarat,Ankleshwar,"GIDC, Ankleshwar - GPCB",08-11-2025 15:00:00,21.613267,73.010555,CO,82.0,121.0,109.0
India,Delhi,Delhi,"Major Dhyan Chand National Stadium, Delhi - DPCC",08-11-2025 15:00:00,28.611281,77.237738,OZONE,2.0,190.0,190.0
India,Delhi,Delhi,"Mandir Marg, Delhi - DPCC",08-11-2025 15:00:00,28.636429,77.201067,OZONE,6.0,132.0,67.0
India,Delhi,Delhi,"Najafgarh, Delhi - DPCC",08-11-2025 15:00:00,28.570173,76.933762,PM10,119.0,420.0,200.0
India,Delhi,Delhi,"Narela, Delhi - DPCC",08-11-2025 15:00:00,28.822836,77.101981,PM2.5,142.0,500.0,389.0
India,Delhi,Delhi,"Jahangirpuri, Delhi - DPCC",08-11-2025 15:00:00,28.73282,77.170633,CO,61.0,126.0,106.0
India,Delhi,Delhi,"Jahangirpuri, Delhi - DPCC",08-11-2025 15:00:00,28.73282,77.170633,OZONE,4.0,282.0,247.0
India,Delhi,Delhi,"Jawaharlal Nehru Stadium, Delhi - DPCC",08-11-2025 15:00:00,28.58028,77.233829,SO2,14.0,40.0,23.0
India,Delhi,Delhi,"Lodhi Road, Delhi - IMD",08-11-2025 15:00:00,28.5918245,77.2273074,CO,20.0,72.0,36.0
India,Delhi,Delhi,"Narela, Delhi - DPCC",08-11-2025 15:00:00,28.822836,77.101981,OZONE,1.0,171.0,171.0
India,Delhi,Delhi,"Nehru Nagar, Delhi - DPCC",08-11-2025 15:00:00,28.56789,77.250515,NH3,6.0,11.0,9.0
India,Delhi,Delhi,"Nehru Nagar, Delhi - DPCC",08-11-2025 15:00:00,28.56789,77.250515,CO,54.0,124.0,91.0
India,Delhi,Delhi,"North Campus, DU, Delhi - IMD",08-11-2025 15:00:00,28.6573814,77.1585447,CO,20.0,109.0,71.0
