country,state,city,station,last_update,latitude,longitude,pollutant_id,pollutant_min,pollutant_max,pollutant_avg
India,"Andaman and Nicobar","Sri Vijaya Puram","Police Line, Sri Vijaya Puram - ANPCC","08-11-2025 15:00:00",11.654054,92.734055,NH3,NA,NA,NA
India,"Andaman and Nicobar","Sri Vijaya Puram","Police Line, Sri Vijaya Puram - ANPCC","08-11-2025 15:00:00",11.654054,92.734055,OZONE,2,5,4
India,Andhra_Pradesh,Amaravati,"Secretariat, Amaravati - APPCB","08-11-2025 15:00:00",16.5150833,80.5181667,PM10,91,260,124
India,Andhra_Pradesh,Amaravati,"Secretariat, Amaravati - APPCB","08-11-2025 15:00:00",16.5150833,80.5181667,NH3,1,4,3
India,Andhra_Pradesh,Amaravati,"Secretariat, Amaravati - APPCB","08-11-2025 15:00:00",16.5150833,80.5181667,SO2,8,50,14
India,Andhra_Pradesh,Amaravati,"Secretariat, Amaravati - APPCB","08-11-2025 15:00:00",16.5150833,80.5181667,CO,18,31,23
India,Andhra_Pradesh,Anantapur,"Gulzarpet, Anantapur - APPCB","08-11-2025 15:00:00",14.675886,77.593027,CO,28,75,35
India,Andhra_Pradesh,Chittoor,"Gangineni Cheruvu, Chittoor - APPCB","08-11-2025 15:00:00",13.204880,79.097889,SO2,NA,NA,NA
India,Bihar,Katihar,"Mirchaibari, Katihar - BSPCB","08-11-2025 15:00:00",25.560083,87.553265,NO2,2,5,3
India,Bihar,Katihar,"Mirchaibari, Katihar - BSPCB","08-11-2025 15:00:00",25.560083,87.553265,CO,64,82,70
India,Bihar,Kishanganj,"SDM Office_Khagra, Kishanganj - BSPCB","08-11-2025 15:00:00",26.0881305,87.93840336,PM2.5,33,312,221
India,Bihar,Kishanganj,"SDM Office_Khagra, Kishanganj - BSPCB","08-11-2025 15:00:00",26.0881305,87.93840336,PM10,29,164,124
India,Bihar,Kishanganj,"SDM Office_Khagra, Kishanganj - BSPCB","08-11-2025 15:00:00",26.0881305,87.93840336,NO2,7,8,7
India,Bihar,Kishanganj,"SDM Office_Khagra, Kishanganj - BSPCB","08-11-2025 15:00:00",26.0881305,87.93840336,OZONE,16,19,17
India,Bihar,Manguraha,"Forest Rest House, Manguraha - BSPCB","08-11-2025 15:00:00",27.308328,84.531742,SO2,16,17,17
India,Bihar,Motihari,"Gandak Colony, Motihari - BSPCB","08-11-2025 15:00:00",26.63086,84.90051,OZONE,2,4,2
India,Andhra_Pradesh,Kadapa,"Yerramukkapalli, Kadapa - APPCB","08-11-2025 15:00:00",14.465052,78.824187,NO2,NA,NA,NA
India,Andhra_Pradesh,Kadapa,"Yerramukkapalli, Kadapa - APPCB","08-11-2025 15:00:00",14.465052,78.824187,SO2,NA,NA,NA
India,Andhra_Pradesh,Kadapa,"Yerramukkapalli, Kadapa - APPCB","08-11-2025 15:00:00",14.465052,78.824187,CO,NA,NA,NA
India,Andhra_Pradesh,Rajamahendravaram,"Anand Kala Kshetram, Rajamahendravaram - APPCB","08-11-2025 15:00:00",16.9872867,81.7363176,PM2.5,50,136,89
India,Andhra_Pradesh,Rajamahendravaram,"Anand Kala Kshetram, Rajamahendravaram - APPCB","08-11-2025 15:00:00",16.9872867,81.7363176,NH3,3,4,3
India,Andhra_Pradesh,Rajamahendravaram,"Anand Kala Kshetram, Rajamahendravaram - APPCB","08-11-2025 15:00:00",16.9872867,81.7363176,SO2,4,44,13
India,Andhra_Pradesh,Tirumala,"Toll Gate, Tirumala - APPCB","08-11-2025 15:00:00",13.67,79.35,CO,19,62,23
India,Andhra_Pradesh,Tirupati,"Vaikuntapuram, Tirupati - APPCB","08-11-2025 15:00:00",13.615387,79.409230,CO,30,45,37
India,Bihar,Gaya,"Collectorate, Gaya - BSPCB","08-11-2025 15:00:00",24.7955,84.9994,OZONE,19,20,20
India,Bihar,Gaya,"Kareemganj, Gaya - BSPCB","08-11-2025 15:00:00",24.792403,84.992416,PM10,124,356,195
India,Bihar,Gaya,"Kareemganj, Gaya - BSPCB","08-11-2025 15:00:00",24.792403,84.992416,CO,40,44,42
India,Bihar,Gaya,"SFTI Kusdihra, Gaya - BSPCB","08-11-2025 15:00:00",24.762518,84.982348,NH3,2,4,3
India,Bihar,Hajipur,"Industrial Area, Hajipur - BSPCB","08-11-2025 15:00:00",25.697189,85.245900,PM2.5,80,165,111
India,Bihar,Hajipur,"Industrial Area, Hajipur - BSPCB","08-11-2025 15:00:00",25.697189,85.245900,SO2,3,5,4
India,Bihar,Hajipur,"Industrial Area, Hajipur - BSPCB","08-11-2025 15:00:00",25.697189,85.245900,CO,11,49,29
India,Bihar,Bhagalpur,"DM Office_Kachari Chowk, Bhagalpur - BSPCB","08-11-2025 15:00:00",25.251013,86.989001,SO2,10,68,45
India,Bihar,Bhagalpur,"Mayaganj, Bhagalpur - BSPCB","08-11-2025 15:00:00",25.265194,87.012947,OZONE,24,129,82
India,Bihar,"Bihar Sharif","D M Colony, Bihar Sharif - BSPCB","08-11-2025 15:00:00",25.204762,85.514960,NH3,3,5,4
India,Bihar,Buxar,"Charitra Van, Buxar - BSPCB","08-11-2025 15:00:00",25.567520,83.966379,NH3,3,3,3
India,Bihar,Chhapra,"Darshan Nagar, Chhapra - BSPCB","08-11-2025 15:00:00",25.7808257,84.7446768,PM2.5,5,140,28
India,Assam,Nalbari,"Bata Chowk, Nalbari - PCBA","08-11-2025 15:00:00",26.446912,91.439057,SO2,4,8,8
India,Assam,Silchar,"Tarapur, Silchar - PCBA","08-11-2025 15:00:00",24.82827,92.79525,NH3,1,1,1
India,Assam,Silchar,"Tarapur, Silchar - PCBA","08-11-2025 15:00:00",24.82827,92.79525,CO,26,70,49
India,Assam,Sivasagar,"Girls College, Sivasagar - PCBA","08-11-2025 15:00:00",26.987634,94.636574,PM10,34,82,62
India,Bihar,Araria,"Kharahiya Basti, Araria - BSPCB","08-11-2025 15:00:00",26.146529,87.454184,NO2,1,52,21
India,Bihar,Munger,"Town Hall, Munger - BSPCB","08-11-2025 15:00:00",25.376776,86.471523,NO2,4,5,5
India,Bihar,Munger,"Town Hall, Munger - BSPCB","08-11-2025 15:00:00",25.376776,86.471523,NH3,5,8,6
India,Bihar,Munger,"Town Hall, Munger - BSPCB","08-11-2025 15:00:00",25.376776,86.471523,OZONE,11,32,26
India,Bihar,Muzaffarpur,"MIT-Daudpur Kothi, Muzaffarpur - BSPCB","08-11-2025 15:00:00",26.1403345,85.3650192,PM10,52,71,63
India,Bihar,Muzaffarpur,"MIT-Daudpur Kothi, Muzaffarpur - BSPCB","08-11-2025 15:00:00",26.1403345,85.3650192,SO2,13,22,14
India,Bihar,Muzaffarpur,"MIT-Daudpur Kothi, Muzaffarpur - BSPCB","08-11-2025 15:00:00",26.1403345,85.3650192,CO,50,64,57
India,Bihar,Aurangabad,"Gurdeo Nagar, Aurangabad - BSPCB","08-11-2025 15:00:00",24.75746,84.366208,NO2,7,8,8
India,Bihar,Begusarai,"Lohiyanagar, Begusarai - BSPCB","08-11-2025 15:00:00",25.42742023,86.13886079,NO2,16,23,19
India,Bihar,Begusarai,"Lohiyanagar, Begusarai - BSPCB","08-11-2025 15:00:00",25.42742023,86.13886079,OZONE,5,54,30
India,Bihar,Bettiah,"Kamalnath Nagar, Bettiah - BSPCB","08-11-2025 15:00:00",26.80365,84.51954,CO,60,106,83
India,Bihar,Bettiah,"Kamalnath Nagar, Bettiah - BSPCB","08-11-2025 15:00:00",26.80365,84.51954,OZONE,22,24,23
India,Andhra_Pradesh,Vijayawada,"Rajiv Gandhi Park, Vijayawada - APPCB","08-11-2025 15:00:00",16.509717,80.612222,NH3,3,4,4
India,Andhra_Pradesh,Vijayawada,"Rajiv Nagar, Vijayawada - APPCB","08-11-2025 15:00:00",16.554731,80.649110,CO,27,48,36
India,Arunachal_Pradesh,Naharlagun,"Naharlagun, Naharlagun - APSPCB","08-11-2025 15:00:00",27.103358,93.679645,PM10,16,137,65
India,Arunachal_Pradesh,Naharlagun,"Naharlagun, Naharlagun - APSPCB","08-11-2025 15:00:00",27.103358,93.679645,SO2,8,8,8
India,Assam,Byrnihat,"Central Academy for SFS, Byrnihat - PCBA","08-11-2025 15:00:00",26.071318,91.87488,PM10,NA,NA,NA
India,Assam,Byrnihat,"Central Academy for SFS, Byrnihat - PCBA","08-11-2025 15:00:00",26.071318,91.87488,CO,26,58,50
India,Assam,Guwahati,"Pan Bazaar, Guwahati - PCBA","08-11-2025 15:00:00",26.187500,91.744194,OZONE,18,18,18
India,Assam,Guwahati,"Railway Colony, Guwahati - PCBA","08-11-2025 15:00:00",26.181742,91.78063,PM2.5,27,158,72
India,Chhattisgarh,Chhal,"Nawapara SECL Colony, Chhal - CECB","08-11-2025 15:00:00",22.118125,83.140608,NO2,11,22,14
India,Chhattisgarh,Chhal,"Nawapara SECL Colony, Chhal - CECB","08-11-2025 15:00:00",22.118125,83.140608,NH3,5,5,5
India,Chhattisgarh,Chhal,"Nawapara SECL Colony, Chhal - CECB","08-11-2025 15:00:00",22.118125,83.140608,SO2,6,53,19
India,Chhattisgarh,Korba,"Rampur, Korba - CECB","08-11-2025 15:00:00",22.368195,82.746431,PM10,45,69,53
India,Chhattisgarh,Korba,"Rampur, Korba - CECB","08-11-2025 15:00:00",22.368195,82.746431,SO2,6,19,8
India,Chhattisgarh,Korba,"Rampur, Korba - CECB","08-11-2025 15:00:00",22.368195,82.746431,OZONE,2,21,6
India,Chhattisgarh,Korba,"Urja Nagar, Korba - CECB","08-11-2025 15:00:00",22.348441,82.549611,NO2,26,41,32
India,Chhattisgarh,Kunjemura,"OP Jindal School, Kunjemura - CECB","08-11-2025 15:00:00",22.126650,83.483212,PM10,32,105,67
India,Chhattisgarh,Kunjemura,"OP Jindal School, Kunjemura - CECB","08-11-2025 15:00:00",22.126650,83.483212,SO2,2,13,7
India,Chhattisgarh,Kunjemura,"OP Jindal School, Kunjemura - CECB","08-11-2025 15:00:00",22.126650,83.483212,CO,4,20,12
India,Chhattisgarh,Raipur,"Siltara Phase-II, Raipur - CECB","08-11-2025 15:00:00",21.371751,81.664929,NO2,6,40,12
India,Chhattisgarh,Raipur,"Siltara Phase-II, Raipur - CECB","08-11-2025 15:00:00",21.371751,81.664929,SO2,3,6,4
India,Chhattisgarh,Tumidih,"OP Jindal Industrial Park, Tumidih - CECB","08-11-2025 15:00:00",22.06631475,83.33820077,PM10,42,106,73
India,Chhattisgarh,Tumidih,"OP Jindal Industrial Park, Tumidih - CECB","08-11-2025 15:00:00",22.06631475,83.33820077,OZONE,9,105,69
India,Delhi,Delhi,"Alipur, Delhi - DPCC","08-11-2025 15:00:00",28.815329,77.153010,PM10,139,500,389
India,Delhi,Delhi,"Alipur, Delhi - DPCC","08-11-2025 15:00:00",28.815329,77.153010,NO2,34,146,81
India,Delhi,Delhi,"Alipur, Delhi - DPCC","08-11-2025 15:00:00",28.815329,77.153010,CO,44,112,87
India,Delhi,Delhi,"Anand Vihar, Delhi - DPCC","08-11-2025 15:00:00",28.647622,77.3158090,CO,101,136,119
India,Delhi,Delhi,"CRRI Mathura Road, Delhi - IMD","08-11-2025 15:00:00",28.5512005,77.2735737,CO,14,106,44
India,Delhi,Delhi,"Chandni Chowk, Delhi - IITM","08-11-2025 15:00:00",28.656756,77.227234,NH3,7,20,13
India,Delhi,Delhi,"Chandni Chowk, Delhi - IITM","08-11-2025 15:00:00",28.656756,77.227234,OZONE,1,90,51
India,Delhi,Delhi,"DTU, Delhi - CPCB","08-11-2025 15:00:00",28.7500499,77.1112615,PM10,147,443,304
India,Delhi,Delhi,"DTU, Delhi - CPCB","08-11-2025 15:00:00",28.7500499,77.1112615,CO,21,77,67
India,Delhi,Delhi,"Dr. Karni Singh Shooting Range, Delhi - DPCC","08-11-2025 15:00:00",28.498571,77.264840,PM2.5,203,500,367
India,Delhi,Delhi,"Dr. Karni Singh Shooting Range, Delhi - DPCC","08-11-2025 15:00:00",28.498571,77.264840,NH3,6,9,8
India,Delhi,Delhi,"Dr. Karni Singh Shooting Range, Delhi - DPCC","08-11-2025 15:00:00",28.498571,77.264840,SO2,20,43,29
India,Chhattisgarh,Milupara,"Govt. Higher Secondary School, Milupara - CECB","08-11-2025 15:00:00",22.1910172,83.5197009,PM2.5,28,57,42
India,Chhattisgarh,Milupara,"Govt. Higher Secondary School, Milupara - CECB","08-11-2025 15:00:00",22.1910172,83.5197009,PM10,32,91,61
India,Chhattisgarh,Milupara,"Govt. Higher Secondary School, Milupara - CECB","08-11-2025 15:00:00",22.1910172,83.5197009,SO2,13,17,15
India,Chhattisgarh,Raipur,"AIIMS, Raipur - CECB","08-11-2025 15:00:00",21.258815,81.578979,PM2.5,21,74,42
India,Chhattisgarh,Raipur,"AIIMS, Raipur - CECB","08-11-2025 15:00:00",21.258815,81.578979,PM10,34,165,79
India,Chhattisgarh,Raipur,"Krishak Nagar, Raipur - CECB","08-11-2025 15:00:00",21.237755,81.705301,PM10,53,107,77
India,Chhattisgarh,Raipur,"Krishak Nagar, Raipur - CECB","08-11-2025 15:00:00",21.237755,81.705301,NO2,12,30,16
India,Chhattisgarh,Raipur,"Krishak Nagar, Raipur - CECB","08-11-2025 15:00:00",21.237755,81.705301,OZONE,2,50,20
India,Delhi,Delhi,"Aya Nagar, Delhi - IMD","08-11-2025 15:00:00",28.4706914,77.1099364,OZONE,9,161,161
India,Delhi,Delhi,"Bawana, Delhi - DPCC","08-11-2025 15:00:00",28.776200,77.051074,PM2.5,257,500,412
India,Delhi,Delhi,"Bawana, Delhi - DPCC","08-11-2025 15:00:00",28.776200,77.051074,SO2,10,42,23
India,Delhi,Delhi,"Burari Crossing, Delhi - IMD","08-11-2025 15:00:00",28.7256504,77.2011573,CO,13,102,61
India,Delhi,Delhi,"CRRI Mathura Road, Delhi - IMD","08-11-2025 15:00:00",28.5512005,77.2735737,PM2.5,232,500,381
India,Bihar,Patna,"Govt. High School Shikarpur, Patna - BSPCB","08-11-2025 15:00:00",25.592539,85.227158,NH3,4,5,5
India,Bihar,Patna,"Muradpur, Patna - BSPCB","08-11-2025 15:00:00",25.619651,85.147382,NH3,4,5,5
India,Bihar,Patna,"Muradpur, Patna - BSPCB","08-11-2025 15:00:00",25.619651,85.147382,SO2,7,9,9
India,Bihar,Patna,"Rajbansi Nagar, Patna - BSPCB","08-11-2025 15:00:00",25.599486,85.113666,PM2.5,86,128,104
India,Bihar,Patna,"Rajbansi Nagar, Patna - BSPCB","08-11-2025 15:00:00",25.599486,85.113666,PM10,97,130,113
India,Bihar,Patna,"Rajbansi Nagar, Patna - BSPCB","08-11-2025 15:00:00",25.599486,85.113666,SO2,6,8,7
India,Chhattisgarh,Bhilai,"32Bungalows, Bhilai - CECB","08-11-2025 15:00:00",21.194815,81.314770,PM10,29,71,46
India,Chhattisgarh,Bhilai,"Civic Center, Bhilai - Bhilai Steel Plant","08-11-2025 15:00:00",21.185571,81.343175,CO,21,22,22
India,Chhattisgarh,Bhilai,"Civic Center, Bhilai - Bhilai Steel Plant","08-11-2025 15:00:00",21.185571,81.343175,OZONE,8,13,10
India,Chhattisgarh,Bilaspur,"Mangala, Bilaspur - NTPC","08-11-2025 15:00:00",22.08815,82.13737,PM2.5,30,71,49
India,Chhattisgarh,Bilaspur,"Mangala, Bilaspur - NTPC","08-11-2025 15:00:00",22.08815,82.13737,NO2,13,26,17
India,Bihar,Purnia,"Mariam Nagar, Purnia - BSPCB","08-11-2025 15:00:00",25.366336,87.117468,PM2.5,52,100,81
India,Bihar,Purnia,"Mariam Nagar, Purnia - BSPCB","08-11-2025 15:00:00",25.366336,87.117468,OZONE,25,56,39
India,Bihar,Rajgir,"Dangi Tola, Rajgir - BSPCB","08-11-2025 15:00:00",25.03280,85.41948,PM10,38,83,61
India,Bihar,Rajgir,"Dangi Tola, Rajgir - BSPCB","08-11-2025 15:00:00",25.03280,85.41948,SO2,18,24,21
India,Bihar,Sasaram,"Dada Peer, Sasaram - BSPCB","08-11-2025 15:00:00",24.952822,84.002396,NH3,3,39,5
India,Bihar,Siwan,"Chitragupta Nagar, Siwan - BSPCB","08-11-2025 15:00:00",26.2271665,84.3570427,NO2,1,1,1
India,Gujarat,Ahmedabad,"Maninagar, Ahmedabad - GPCB","08-11-2025 15:00:00",23.002657,72.591912,PM10,35,218,130
India,Gujarat,Ahmedabad,"Maninagar, Ahmedabad - GPCB","08-11-2025 15:00:00",23.002657,72.591912,SO2,33,47,41
India,Gujarat,Ahmedabad,"Raikhad, Ahmedabad - IITM","08-11-2025 15:00:00",23.020509,72.579261,SO2,NA,NA,NA
India,Gujarat,Ahmedabad,"Rakhial, Ahmedabad - IITM","08-11-2025 15:00:00",23.016834,72.625775,NH3,2,17,4
India,Gujarat,Ahmedabad,"Rakhial, Ahmedabad - IITM","08-11-2025 15:00:00",23.016834,72.625775,OZONE,2,77,32
India,Gujarat,Ahmedabad,"SAC ISRO Bopal, Ahmedabad - IITM","08-11-2025 15:00:00",23.041137,72.456691,PM10,18,500,166
India,Gujarat,Ahmedabad,"SAC ISRO Bopal, Ahmedabad - IITM","08-11-2025 15:00:00",23.041137,72.456691,NH3,2,3,3
India,Gujarat,Ahmedabad,"SAC ISRO Bopal, Ahmedabad - IITM","08-11-2025 15:00:00",23.041137,72.456691,OZONE,2,57,22
India,Delhi,Delhi,"IGI Airport (T3), Delhi - IMD","08-11-2025 15:00:00",28.5627763,77.1180053,PM10,150,442,267
India,Delhi,Delhi,"IGI Airport (T3), Delhi - IMD","08-11-2025 15:00:00",28.5627763,77.1180053,OZONE,1,3,3
India,Delhi,Delhi,"IHBAS, Dilshad Garden, Delhi - CPCB","08-11-2025 15:00:00",28.6811736,77.3025234,NO2,51,56,53
India,Delhi,Delhi,"ITO, Delhi - CPCB","08-11-2025 15:00:00",28.628624,77.241060,PM2.5,191,500,389
India,Delhi,Delhi,"ITO, Delhi - CPCB","08-11-2025 15:00:00",28.628624,77.241060,NO2,28,99,61
India,Delhi,Delhi,"ITO, Delhi - CPCB","08-11-2025 15:00:00",28.628624,77.241060,NH3,2,4,3
India,Delhi,Delhi,"Jahangirpuri, Delhi - DPCC","08-11-2025 15:00:00",28.732820,77.170633,NO2,66,151,108
India,Delhi,Delhi,"Vivek Vihar, Delhi - DPCC","08-11-2025 15:00:00",28.672342,77.315260,NH3,10,12,11
India,Delhi,Delhi,"Wazirpur, Delhi - DPCC","08-11-2025 15:00:00",28.699793,77.165453,SO2,12,40,20
India,Gujarat,Ahmedabad,"Chandkheda, Ahmedabad - IITM","08-11-2025 15:00:00",23.107969,72.574648,NO2,10,116,56
India,Gujarat,Ahmedabad,"Chandkheda, Ahmedabad - IITM","08-11-2025 15:00:00",23.107969,72.574648,SO2,5,10,7
India,Gujarat,Ahmedabad,"Gyaspur, Ahmedabad - IITM","08-11-2025 15:00:00",22.977134,72.553024,NH3,4,59,26
India,Gujarat,Ahmedabad,"Maninagar, Ahmedabad - GPCB","08-11-2025 15:00:00",23.002657,72.591912,PM2.5,54,348,218
India,Delhi,Delhi,"Jawaharlal Nehru Stadium, Delhi - DPCC","08-11-2025 15:00:00",28.580280,77.233829,NO2,34,164,99
India,Delhi,Delhi,"Lodhi Road, Delhi - IITM","08-11-2025 15:00:00",28.588333,77.221667,NO2,42,48,44
India,Delhi,Delhi,"Major Dhyan Chand National Stadium, Delhi - DPCC","08-11-2025 15:00:00",28.611281,77.237738,NO2,35,159,93
India,Delhi,Delhi,"Major Dhyan Chand National Stadium, Delhi - DPCC","08-11-2025 15:00:00",28.611281,77.237738,NH3,13,18,16
India,Delhi,Delhi,"Major Dhyan Chand National Stadium, Delhi - DPCC","08-11-2025 15:00:00",28.611281,77.237738,SO2,23,53,33
India,Delhi,Delhi,"Major Dhyan Chand National Stadium, Delhi - DPCC","08-11-2025 15:00:00",28.611281,77.237738,CO,30,110,54
India,Delhi,Delhi,"Mandir Marg, Delhi - DPCC","08-11-2025 15:00:00",28.636429,77.201067,NO2,23,68,40
India,Delhi,Delhi,"Mundka, Delhi - DPCC","08-11-2025 15:00:00",28.684678,77.076574,PM10,141,500,379
India,Delhi,Delhi,"Mundka, Delhi - DPCC","08-11-2025 15:00:00",28.684678,77.076574,NH3,6,15,11
India,Delhi,Delhi,"NSIT Dwarka, Delhi - CPCB","08-11-2025 15:00:00",28.60909,77.0325413,PM2.5,37,384,146
India,Delhi,Delhi,"NSIT Dwarka, Delhi - CPCB","08-11-2025 15:00:00",28.60909,77.0325413,PM10,185,220,201
India,Delhi,Delhi,"NSIT Dwarka, Delhi - CPCB","08-11-2025 15:00:00",28.60909,77.0325413,NH3,5,9,7
India,Delhi,Delhi,"NSIT Dwarka, Delhi - CPCB","08-11-2025 15:00:00",28.60909,77.0325413,CO,22,64,34
India,Delhi,Delhi,"North Campus, DU, Delhi - IMD","08-11-2025 15:00:00",28.6573814,77.1585447,PM2.5,175,500,375
India,Delhi,Delhi,"Okhla Phase-2, Delhi - DPCC","08-11-2025 15:00:00",28.530785,77.271255,NO2,74,193,130
India,Delhi,Delhi,"Patparganj, Delhi - DPCC","08-11-2025 15:00:00",28.623763,77.287209,CO,54,124,91
India,Delhi,Delhi,"Punjabi Bagh, Delhi - DPCC","08-11-2025 15:00:00",28.674045,77.131023,PM10,157,477,350
India,Delhi,Delhi,"Rohini, Delhi - DPCC","08-11-2025 15:00:00",28.732528,77.119920,CO,13,55,29
India,Delhi,Delhi,"Shadipur, Delhi - CPCB","08-11-2025 15:00:00",28.6514781,77.1473105,SO2,1,29,10
India,Delhi,Delhi,"Sonia Vihar, Delhi - DPCC","08-11-2025 15:00:00",28.710508,77.249485,CO,56,122,111
India,Delhi,Delhi,"Sri Aurobindo Marg, Delhi - DPCC","08-11-2025 15:00:00",28.531346,77.190156,NO2,25,76,48
India,Delhi,Delhi,"Pusa, Delhi - DPCC","08-11-2025 15:00:00",28.639652,77.146275,NH3,2,16,10
India,Delhi,Delhi,"Pusa, Delhi - IMD","08-11-2025 15:00:00",28.636110,77.173332,PM2.5,199,472,380
India,Delhi,Delhi,"Pusa, Delhi - IMD","08-11-2025 15:00:00",28.636110,77.173332,NO2,9,114,57
India,Delhi,Delhi,"R K Puram, Delhi - DPCC","08-11-2025 15:00:00",28.563262,77.186937,NO2,37,155,99
India,Gujarat,Ahmedabad,"SAC ISRO Satellite, Ahmedabad - IITM","08-11-2025 15:00:00",23.023389,72.515201,CO,2,144,28
India,Gujarat,Ahmedabad,"SVPI Airport Hansol, Ahmedabad - IITM","08-11-2025 15:00:00",23.076793,72.627874,PM10,55,444,210
India,Gujarat,Ahmedabad,"SVPI Airport Hansol, Ahmedabad - IITM","08-11-2025 15:00:00",23.076793,72.627874,CO,13,117,32
India,Gujarat,Vatva,"Phase-4 GIDC, Vatva - GPCB","08-11-2025 15:00:00",22.969611,72.643500,NH3,3,4,3
India,Gujarat,Vatva,"Phase-4 GIDC, Vatva - GPCB","08-11-2025 15:00:00",22.969611,72.643500,SO2,21,36,29
India,Haryana,Ambala,"Patti Mehar, Ambala - HSPCB","08-11-2025 15:00:00",30.379589,76.778328,SO2,31,32,31
India,Haryana,Bahadurgarh,"Arya Nagar, Bahadurgarh - HSPCB","08-11-2025 15:00:00",28.6701,76.9254,SO2,7,7,7
India,Haryana,Bahadurgarh,"Arya Nagar, Bahadurgarh - HSPCB","08-11-2025 15:00:00",28.6701,76.9254,OZONE,15,19,17
India,Haryana,Ballabgarh,"Nathu Colony, Ballabgarh - HSPCB","08-11-2025 15:00:00",28.3419248,77.319699,PM2.5,108,157,128
India,Haryana,Ballabgarh,"Nathu Colony, Ballabgarh - HSPCB","08-11-2025 15:00:00",28.3419248,77.319699,SO2,7,11,10
India,Haryana,Ballabgarh,"Nathu Colony, Ballabgarh - HSPCB","08-11-2025 15:00:00",28.3419248,77.319699,CO,48,52,50
India,Haryana,Ballabgarh,"Nathu Colony, Ballabgarh - HSPCB","08-11-2025 15:00:00",28.3419248,77.319699,OZONE,15,15,15
India,Haryana,Bhiwani,"H.B. Colony, Bhiwani - HSPCB","08-11-2025 15:00:00",28.806223,76.141105,PM2.5,211,313,246
India,Haryana,Faridabad,"Sector 30, Faridabad - HSPCB","08-11-2025 15:00:00",28.4417,77.3217,PM2.5,335,342,336
India,Haryana,Faridabad,"Sector 30, Faridabad - HSPCB","08-11-2025 15:00:00",28.4417,77.3217,OZONE,17,19,18
India,Haryana,Fatehabad,"Huda Sector, Fatehabad - HSPCB","08-11-2025 15:00:00",29.503664,75.467934,NH3,13,14,14
India,Haryana,Fatehabad,"Huda Sector, Fatehabad - HSPCB","08-11-2025 15:00:00",29.503664,75.467934,SO2,1,25,12
India,Haryana,Fatehabad,"Huda Sector, Fatehabad - HSPCB","08-11-2025 15:00:00",29.503664,75.467934,OZONE,11,21,14
India,Haryana,Gurugram,"NISE Gwal Pahari, Gurugram - IMD","08-11-2025 15:00:00",28.422681,77.148944,PM2.5,3,500,217
India,Haryana,Gurugram,"NISE Gwal Pahari, Gurugram - IMD","08-11-2025 15:00:00",28.422681,77.148944,CO,19,65,51
India,Haryana,Gurugram,"Sector-51, Gurugram - HSPCB","08-11-2025 15:00:00",28.4227,77.0667,NH3,6,10,8
India,Haryana,Gurugram,"Sector-51, Gurugram - HSPCB","08-11-2025 15:00:00",28.4227,77.0667,OZONE,6,23,14
India,Haryana,Gurugram,"Teri Gram, Gurugram - HSPCB","08-11-2025 15:00:00",28.4275,77.1465,PM2.5,73,304,162
India,Haryana,Panchkula,"Sector-6, Panchkula - HSPCB ","08-11-2025 15:00:00",30.7057778,76.8531805555555,OZONE,17,32,26
India,Haryana,Panipat,"Sector-18, Panipat - HSPCB","08-11-2025 15:00:00",29.432304,76.972765,CO,16,26,24
India,Haryana,Panipat,"Sector-18, Panipat - HSPCB","08-11-2025 15:00:00",29.432304,76.972765,OZONE,30,30,30
India,Haryana,Rohtak,"MD University, Rohtak - HSPCB","08-11-2025 15:00:00",28.52123,76.37138,PM2.5,245,466,372
India,Haryana,Sirsa,"F-Block, Sirsa - HSPCB","08-11-2025 15:00:00",29.536400,75.015800,PM2.5,93,370,274
India,Haryana,Sirsa,"F-Block, Sirsa - HSPCB","08-11-2025 15:00:00",29.536400,75.015800,NO2,7,31,18
India,Haryana,Sirsa,"F-Block, Sirsa - HSPCB","08-11-2025 15:00:00",29.536400,75.015800,NH3,10,14,13
India,Haryana,Karnal,"Sector-12, Karnal - HSPCB","08-11-2025 15:00:00",29.695300,77.002700,CO,35,61,48
India,Haryana,Kurukshetra,"Sector-7, Kurukshetra - HSPCB","08-11-2025 15:00:00",29.966942,76.875879,PM10,76,304,217
India,Haryana,Mandikhera,"General Hospital, Mandikhera - HSPCB","08-11-2025 15:00:00",27.9002,76.9938,CO,40,102,84
India,Haryana,Manesar,"Sector-2 IMT, Manesar - HSPCB","08-11-2025 15:00:00",28.360699,76.936090,PM2.5,164,347,286
India,Haryana,Manesar,"Sector-2 IMT, Manesar - HSPCB","08-11-2025 15:00:00",28.360699,76.936090,PM10,114,229,166
India,Haryana,Dharuhera,"Municipal Corporation Office, Dharuhera -  HSPCB","08-11-2025 15:00:00",28.206800,76.799700,PM2.5,60,263,151
India,Haryana,Faridabad,"New Industrial Town, Faridabad - HSPCB","08-11-2025 15:00:00",28.39072,77.30059,NO2,24,26,25
India,Haryana,Faridabad,"New Industrial Town, Faridabad - HSPCB","08-11-2025 15:00:00",28.39072,77.30059,NH3,11,12,11
India,Haryana,Faridabad,"Sector 11, Faridabad - HSPCB","08-11-2025 15:00:00",28.376058,77.315741,PM2.5,80,322,220
India,Haryana,Faridabad,"Sector 11, Faridabad - HSPCB","08-11-2025 15:00:00",28.376058,77.315741,PM10,86,179,145
India,Haryana,Gurugram,"Teri Gram, Gurugram - HSPCB","08-11-2025 15:00:00",28.4275,77.1465,CO,15,77,38
India,Haryana,Gurugram,"Vikas Sadan, Gurugram - HSPCB","08-11-2025 15:00:00",28.4501238,77.0263051,PM10,100,172,137
India,Haryana,Gurugram,"Vikas Sadan, Gurugram - HSPCB","08-11-2025 15:00:00",28.4501238,77.0263051,NO2,9,45,26
India,Haryana,Gurugram,"Vikas Sadan, Gurugram - HSPCB","08-11-2025 15:00:00",28.4501238,77.0263051,SO2,2,8,5
India,Haryana,Hisar,"Urban Estate-II, Hisar - HSPCB","08-11-2025 15:00:00",29.140560,75.744941,OZONE,46,117,82
India,Haryana,Narnaul,"Shastri Nagar, Narnaul - HSPCB","08-11-2025 15:00:00",28.060249,76.113115,OZONE,16,168,56
India,Haryana,Palwal,"Shyam Nagar, Palwal - HSPCB","08-11-2025 15:00:00",28.1485564,77.3320667,NO2,23,24,24
India,Haryana,Palwal,"Shyam Nagar, Palwal - HSPCB","08-11-2025 15:00:00",28.1485564,77.3320667,SO2,12,13,12
India,Haryana,Panchkula,"Sector-6, Panchkula - HSPCB ","08-11-2025 15:00:00",30.7057778,76.8531805555555,PM2.5,52,305,157
India,Haryana,Bhiwani,"H.B. Colony, Bhiwani - HSPCB","08-11-2025 15:00:00",28.806223,76.141105,NH3,1,8,7
India,Haryana,"Charkhi Dadri","Mini Secretariat, Charkhi Dadri - HSPCB","08-11-2025 15:00:00",28.593883,76.270653,PM10,99,199,167
India,Haryana,"Charkhi Dadri","Mini Secretariat, Charkhi Dadri - HSPCB","08-11-2025 15:00:00",28.593883,76.270653,CO,10,25,16
India,Gujarat,Gandhinagar,"IIPHG Lekawada, Gandhinagar - IITM","08-11-2025 15:00:00",23.243639,72.68994,PM2.5,42,91,68
India,Gujarat,Gandhinagar,"Sector-10, Gandhinagar - GPCB","08-11-2025 15:00:00",23.221714,72.654328,NH3,1,1,1
India,Haryana,Sonipat,"Murthal, Sonipat - HSPCB","08-11-2025 15:00:00",29.027200,77.062100,NH3,10,21,16
India,Haryana,"Yamuna Nagar","Gobind Pura, Yamuna Nagar - HSPCB","08-11-2025 15:00:00",30.1480566,77.2893471,PM10,115,209,152
India,"Himachal Pradesh",Baddi,"HIMUDA Complex Phase-1, Baddi - HPPCB","08-11-2025 15:00:00",30.943887,76.801991,PM10,86,425,196
India,"Himachal Pradesh",Baddi,"HIMUDA Complex Phase-1, Baddi - HPPCB","08-11-2025 15:00:00",30.943887,76.801991,NO2,21,118,59
India,"Himachal Pradesh",Baddi,"HIMUDA Complex Phase-1, Baddi - HPPCB","08-11-2025 15:00:00",30.943887,76.801991,NH3,5,7,6
India,Jammu_and_Kashmir,Srinagar,"Rajbagh, Srinagar - JKSPCB","08-11-2025 15:00:00",34.066206,74.819820,OZONE,NA,NA,NA
India,Jharkhand,Dhanbad,"Sardar Patel Nagar, Dhanbad - JSPCB","08-11-2025 15:00:00",23.80569,86.44268,NO2,91,115,96
India,Karnataka,Yadgir,"Collector Office, Yadgir - KSPCB","08-11-2025 15:00:00",16.7602,77.1428,PM10,47,106,69
India,Karnataka,Yadgir,"Collector Office, Yadgir - KSPCB","08-11-2025 15:00:00",16.7602,77.1428,NH3,1,2,2
India,Kerala,Eloor,"Udyogamandal, Eloor - Kerala PCB","08-11-2025 15:00:00",10.073232,76.302765,PM10,NA,NA,NA
India,Kerala,Kannur,"Thavakkara, Kannur - Kerala PCB","08-11-2025 15:00:00",11.875000,75.373200,PM2.5,44,51,47
India,Kerala,Kannur,"Thavakkara, Kannur - Kerala PCB","08-11-2025 15:00:00",11.875000,75.373200,NH3,1,1,1
India,Kerala,Kannur,"Thavakkara, Kannur - Kerala PCB","08-11-2025 15:00:00",11.875000,75.373200,CO,14,16,15
India,Kerala,Thiruvananthapuram,"Kariavattom, Thiruvananthapuram - Kerala PCB","08-11-2025 15:00:00",8.563700,76.886500,PM10,60,76,69
India,Kerala,Thiruvananthapuram,"Kariavattom, Thiruvananthapuram - Kerala PCB","08-11-2025 15:00:00",8.563700,76.886500,NO2,6,7,6
India,Kerala,Thiruvananthapuram,"Kariavattom, Thiruvananthapuram - Kerala PCB","08-11-2025 15:00:00",8.563700,76.886500,OZONE,36,36,36
India,Karnataka,Dharwad,"Kalabhavan, Dharwad - KSPCB","08-11-2025 15:00:00",15.459706,75.008381,PM2.5,42,94,62
India,Karnataka,Gadag,"Panchal Nagar, Gadag - KSPCB","08-11-2025 15:00:00",15.411456,75.638133,NO2,NA,NA,NA
India,Karnataka,Hubballi,"Lingaraj Nagar, Hubballi - KSPCB","08-11-2025 15:00:00",15.3714823,75.1160168,PM10,46,70,55
India,Karnataka,Hubballi,"Lingaraj Nagar, Hubballi - KSPCB","08-11-2025 15:00:00",15.3714823,75.1160168,CO,6,24,9
India,Karnataka,Kalaburagi,"Lal Bahadur Shastri Nagar, Kalaburagi - KSPCB","08-11-2025 15:00:00",17.321993,76.822628,PM2.5,NA,NA,NA
India,Jharkhand,Jorapokhar,"Tata Stadium, Jorapokhar - JSPCB","08-11-2025 15:00:00",23.707909,86.414670,SO2,NA,NA,NA
India,Karnataka,Belgaum,"Ramteerth Nagar, Belgaum - KSPCB","08-11-2025 15:00:00",15.888653,74.541751,PM2.5,19,185,68
India,Karnataka,Bengaluru,"BTM Layout, Bengaluru - CPCB","08-11-2025 15:00:00",12.9135218,77.5950804,NO2,NA,NA,NA
India,Karnataka,Bengaluru,"BWSSB Kadabesanahalli, Bengaluru - CPCB","08-11-2025 15:00:00",12.9352049,77.6814488,SO2,1,7,4
India,Karnataka,Bengaluru,"Silk Board, Bengaluru - KSPCB","08-11-2025 15:00:00",12.917348,77.622813,NH3,2,2,2
India,Karnataka,Bidar,"Naubad, Bidar - KSPCB","08-11-2025 15:00:00",17.930306,77.482194,NH3,4,4,4
India,Karnataka,Bidar,"Naubad, Bidar - KSPCB","08-11-2025 15:00:00",17.930306,77.482194,CO,14,33,27
India,Karnataka,Chamarajanagar,"Urban, Chamarajanagar - KSPCB","08-11-2025 15:00:00",11.55358,76.55521,PM2.5,29,36,30
India,Karnataka,Chamarajanagar,"Urban, Chamarajanagar - KSPCB","08-11-2025 15:00:00",11.55358,76.55521,CO,22,120,22
India,Karnataka,Kalaburagi,"Lal Bahadur Shastri Nagar, Kalaburagi - KSPCB","08-11-2025 15:00:00",17.321993,76.822628,CO,30,38,35
India,Karnataka,Kalaburagi,"Mahatma Basaveswar Colony, Kalaburgi - KSPCB","08-11-2025 15:00:00",17.336318,76.847397,PM2.5,19,36,30
India,Karnataka,Kalaburagi,"Mahatma Basaveswar Colony, Kalaburgi - KSPCB","08-11-2025 15:00:00",17.336318,76.847397,NO2,13,16,15
India,Karnataka,Mangalore,"Kadri, Mangalore - KSPCB","08-11-2025 15:00:00",12.889250,74.853000,NH3,1,7,1
India,Karnataka,Bengaluru,"Jigani, Bengaluru - KSPCB","08-11-2025 15:00:00",12.7816279,77.6299145,SO2,18,22,18
India,Karnataka,Bengaluru,"Jigani, Bengaluru - KSPCB","08-11-2025 15:00:00",12.7816279,77.6299145,OZONE,19,21,20
India,Karnataka,Bengaluru,"Kasturi Nagar, Bengaluru - KSPCB","08-11-2025 15:00:00",13.003872,77.664217,PM10,68,70,69
India,Karnataka,Bengaluru,"Kasturi Nagar, Bengaluru - KSPCB","08-11-2025 15:00:00",13.003872,77.664217,NO2,29,30,29
India,Karnataka,Bengaluru,"Shivapura_Peenya, Bengaluru - KSPCB","08-11-2025 15:00:00",13.0246342,77.5080115,PM10,NA,NA,NA
India,Karnataka,Bengaluru,"City Railway Station, Bengaluru - KSPCB","08-11-2025 15:00:00",12.9756843,77.5660749,SO2,11,18,14
India,Karnataka,Bengaluru,"Jayanagar 5th Block, Bengaluru - KSPCB","08-11-2025 15:00:00",12.920984,77.584908,PM10,68,112,90
India,Karnataka,Bengaluru,"Jayanagar 5th Block, Bengaluru - KSPCB","08-11-2025 15:00:00",12.920984,77.584908,CO,10,87,41
India,Karnataka,Bengaluru,"Jayanagar 5th Block, Bengaluru - KSPCB","08-11-2025 15:00:00",12.920984,77.584908,OZONE,4,65,45
India,Karnataka,Tumakuru,"Thimmalapura, Tumakuru - KSPCB","08-11-2025 15:00:00",13.377516,77.099072,NH3,NA,NA,NA
India,Karnataka,Tumakuru,"Thimmalapura, Tumakuru - KSPCB","08-11-2025 15:00:00",13.377516,77.099072,SO2,NA,NA,NA
India,Karnataka,Tumakuru,"Thimmalapura, Tumakuru - KSPCB","08-11-2025 15:00:00",13.377516,77.099072,CO,53,54,54
India,Karnataka,Udupi,"Brahmagiri, Udupi - KSPCB","08-11-2025 15:00:00",13.34194444,74.74694444,SO2,8,8,8
India,"Madhya Pradesh",Indore,"Airport Area, Indore - IMC","08-11-2025 15:00:00",22.7289,75.8076,SO2,20,20,20
India,"Madhya Pradesh",Indore,"Airport Area, Indore - IMC","08-11-2025 15:00:00",22.7289,75.8076,CO,4,8,6
India,"Madhya Pradesh",Indore,"Chhoti Gwaltoli, Indore - MPPCB","08-11-2025 15:00:00",22.4310,75.5213,PM10,38,168,101
India,"Madhya Pradesh",Indore,"Chhoti Gwaltoli, Indore - MPPCB","08-11-2025 15:00:00",22.4310,75.5213,NH3,1,8,3
India,"Madhya Pradesh",Indore,"Chhoti Gwaltoli, Indore - MPPCB","08-11-2025 15:00:00",22.4310,75.5213,SO2,12,41,19
India,"Madhya Pradesh",Indore,"Maguda Nagar, Indore - IMC","08-11-2025 15:00:00",22.7524,75.8872,SO2,NA,NA,NA
India,"Madhya Pradesh",Indore,"Regional Park, Indore - IMC","08-11-2025 15:00:00",22.6780,75.8559,PM10,31,222,102
India,"Madhya Pradesh",Indore,"Regional Park, Indore - IMC","08-11-2025 15:00:00",22.6780,75.8559,NH3,NA,NA,NA
India,"Madhya Pradesh",Indore,"Regional Park, Indore - IMC","08-11-2025 15:00:00",22.6780,75.8559,OZONE,10,24,16
India,"Madhya Pradesh",Indore,"Residency Area, Indore - IMC","08-11-2025 15:00:00",22.7084,75.8815,NO2,12,18,16
India,Maharashtra,Akola,"Ramdaspeth, Akola - MPCB","08-11-2025 15:00:00",20.719516,77.000253,NO2,13,64,27
India,Maharashtra,Akola,"Ramdaspeth, Akola - MPCB","08-11-2025 15:00:00",20.719516,77.000253,NH3,3,13,6
India,Maharashtra,Amravati,"Shivneri Colony, Amravati - MPCB","08-11-2025 15:00:00",20.9402359,77.7895248,PM2.5,22,131,89
India,Maharashtra,Amravati,"Shivneri Colony, Amravati - MPCB","08-11-2025 15:00:00",20.9402359,77.7895248,PM10,82,161,124
India,Maharashtra,Amravati,"Shivneri Colony, Amravati - MPCB","08-11-2025 15:00:00",20.9402359,77.7895248,NO2,13,36,20
India,Maharashtra,Amravati,"Shri Shivaji Science College, Amravati - MPCB","08-11-2025 15:00:00",20.939198,77.765701,NO2,5,87,28
India,Maharashtra,Aurangabad,"MIDC Chilkalthana, Aurangabad - MPCB","08-11-2025 15:00:00",19.875620,75.387310,PM10,20,144,85
India,Maharashtra,Aurangabad,"MIDC Chilkalthana, Aurangabad - MPCB","08-11-2025 15:00:00",19.875620,75.387310,NO2,13,137,61
India,Maharashtra,Aurangabad,"Rachnakar Colony, Aurangabad - MPCB","08-11-2025 15:00:00",19.863756,75.321188,PM2.5,55,304,145
India,Maharashtra,Aurangabad,"Rachnakar Colony, Aurangabad - MPCB","08-11-2025 15:00:00",19.863756,75.321188,PM10,52,166,105
India,Maharashtra,Aurangabad,"Rachnakar Colony, Aurangabad - MPCB","08-11-2025 15:00:00",19.863756,75.321188,CO,17,69,27
India,Maharashtra,Aurangabad,"Rachnakar Colony, Aurangabad - MPCB","08-11-2025 15:00:00",19.863756,75.321188,OZONE,11,85,41
India,Maharashtra,Badlapur,"Katrap, Badlapur - MPCB","08-11-2025 15:00:00",19.16485,73.23409,NO2,9,30,20
India,Maharashtra,Badlapur,"Katrap, Badlapur - MPCB","08-11-2025 15:00:00",19.16485,73.23409,CO,14,66,24
India,Maharashtra,Badlapur,"Katrap, Badlapur - MPCB","08-11-2025 15:00:00",19.16485,73.23409,OZONE,12,78,38
India,Maharashtra,Belapur,"CBD Belapur, Belapur - MPCB","08-11-2025 15:00:00",19.0243902,73.0406721,SO2,1,7,4
India,"Madhya Pradesh",Jabalpur,"Gupteshwar, Jabalpur - JMC","08-11-2025 15:00:00",23.142888,79.916147,SO2,7,11,8
India,"Madhya Pradesh",Jabalpur,"Gupteshwar, Jabalpur - JMC","08-11-2025 15:00:00",23.142888,79.916147,OZONE,3,93,56
India,"Madhya Pradesh",Jabalpur,"Marhatal, Jabalpur - MPPCB","08-11-2025 15:00:00",23.168606,79.932247,NO2,20,117,51
India,"Madhya Pradesh",Jabalpur,"Marhatal, Jabalpur - MPPCB","08-11-2025 15:00:00",23.168606,79.932247,CO,10,121,40
India,"Madhya Pradesh",Jabalpur,"Suhagi, Jabalpur - JMC","08-11-2025 15:00:00",23.218135,79.957770,PM2.5,90,270,186
India,"Madhya Pradesh",Jabalpur,"Suhagi, Jabalpur - JMC","08-11-2025 15:00:00",23.218135,79.957770,PM10,93,162,127
India,Kerala,Thrissur,"Corporation Ground, Thrissur - Kerala PCB","08-11-2025 15:00:00",10.532400,76.215900,PM2.5,46,56,51
India,Kerala,Thrissur,"Corporation Ground, Thrissur - Kerala PCB","08-11-2025 15:00:00",10.532400,76.215900,OZONE,29,30,30
India,"Madhya Pradesh",Bhopal,"Idgah Hills, Bhopal - MPPCB","08-11-2025 15:00:00",23.264759,77.381568,SO2,8,11,9
India,"Madhya Pradesh",Bhopal,"Paryavaran Parisar, Bhopal - MPPCB","08-11-2025 15:00:00",23.210494,77.425409,NO2,16,93,40
India,"Madhya Pradesh",Bhopal,"Paryavaran Parisar, Bhopal - MPPCB","08-11-2025 15:00:00",23.210494,77.425409,CO,10,58,22
India,"Madhya Pradesh",Katni,"Gole Bazar, Katni - MPPCB","08-11-2025 15:00:00",23.50016,80.23284,PM2.5,64,332,196
India,"Madhya Pradesh",Katni,"Gole Bazar, Katni - MPPCB","08-11-2025 15:00:00",23.50016,80.23284,PM10,80,293,153
India,"Madhya Pradesh",Katni,"Gole Bazar, Katni - MPPCB","08-11-2025 15:00:00",23.50016,80.23284,OZONE,14,117,77
India,"Madhya Pradesh",Mandideep,"Sector-D Industrial Area, Mandideep - MPPCB","08-11-2025 15:00:00",23.108440,77.511428,NO2,36,185,95
India,"Madhya Pradesh",Mandideep,"Sector-D Industrial Area, Mandideep - MPPCB","08-11-2025 15:00:00",23.108440,77.511428,NH3,1,4,3
India,"Madhya Pradesh",Sagar,"Civil Lines, Sagar - MPPCB","08-11-2025 15:00:00",23.838586,78.759431,CO,15,58,34
India,"Madhya Pradesh",Singrauli,"Suryakiran Bhawan NCL, Singrauli - MPPCB","08-11-2025 15:00:00",24.108970,82.645580,CO,12,15,14
India,"Madhya Pradesh",Singrauli,"Suryakiran Bhawan NCL, Singrauli - MPPCB","08-11-2025 15:00:00",24.108970,82.645580,OZONE,11,80,54
India,Maharashtra,Ahmednagar,"Tarakpur, Ahmednagar - MPCB","08-11-2025 15:00:00",19.10122,74.73339,CO,12,78,22
India,"Madhya Pradesh",Dewas,"Bhopal Chauraha, Dewas - MPPCB","08-11-2025 15:00:00",22.9682591,76.064118,PM2.5,49,174,89
India,"Madhya Pradesh",Dewas,"Bhopal Chauraha, Dewas - MPPCB","08-11-2025 15:00:00",22.9682591,76.064118,PM10,68,156,112
India,"Madhya Pradesh",Gwalior,"Deen Dayal Nagar, Gwalior - MPPCB","08-11-2025 15:00:00",26.259242,78.216432,PM2.5,65,428,223
India,"Madhya Pradesh",Gwalior,"Deen Dayal Nagar, Gwalior - MPPCB","08-11-2025 15:00:00",26.259242,78.216432,NO2,11,154,56
India,"Madhya Pradesh",Mandideep,"Sector-D Industrial Area, Mandideep - MPPCB","08-11-2025 15:00:00",23.108440,77.511428,CO,9,111,21
India,"Madhya Pradesh",Pithampur,"Sector-2 Industrial Area, Pithampur - MPPCB","08-11-2025 15:00:00",22.624758,75.675238,PM2.5,53,164,110
India,"Madhya Pradesh",Pithampur,"Sector-2 Industrial Area, Pithampur - MPPCB","08-11-2025 15:00:00",22.624758,75.675238,OZONE,34,67,40
India,Maharashtra,Mumbai,"Chakala-Andheri East, Mumbai - IITM","08-11-2025 15:00:00",19.11074,72.86084,SO2,NA,NA,NA
India,Maharashtra,Mumbai,"Chembur, Mumbai - MPCB","08-11-2025 15:00:00",19.0364585,72.8954371,SO2,NA,NA,NA
India,Maharashtra,Mumbai,"Chhatrapati Shivaji Intl. Airport (T2), Mumbai - MPCB","08-11-2025 15:00:00",19.10078,72.87462,PM10,85,130,112
India,Maharashtra,Mumbai,"Chhatrapati Shivaji Intl. Airport (T2), Mumbai - MPCB","08-11-2025 15:00:00",19.10078,72.87462,NH3,1,1,1
India,Maharashtra,Mumbai,"Chhatrapati Shivaji Intl. Airport (T2), Mumbai - MPCB","08-11-2025 15:00:00",19.10078,72.87462,SO2,20,21,21
India,Maharashtra,Mumbai,"Colaba, Mumbai - MPCB","08-11-2025 15:00:00",18.910000,72.820000,PM2.5,18,50,33
India,Maharashtra,Mumbai,"Colaba, Mumbai - MPCB","08-11-2025 15:00:00",18.910000,72.820000,OZONE,11,11,11
India,Maharashtra,Mumbai,"Deonar, Mumbai - IITM","08-11-2025 15:00:00",19.04946,72.9230,PM10,118,227,172
India,Maharashtra,Latur,"Sawe Wadi, Latur - MPCB","08-11-2025 15:00:00",18.39963,76.57452,CO,4,26,17
India,Maharashtra,Mahad,"Kamble Tarf Birwadi, Mahad - MPCB","08-11-2025 15:00:00",18.1023399,73.4783687,SO2,16,65,23
India,Maharashtra,Mahad,"Kamble Tarf Birwadi, Mahad - MPCB","08-11-2025 15:00:00",18.1023399,73.4783687,CO,2,33,5
India,Maharashtra,Malegaon,"Mahesh Nagar, Malegaon - MPCB","08-11-2025 15:00:00",20.555712,74.529236,SO2,4,28,9
India,Maharashtra,Mumbai,"Bandra Kurla Complex, Mumbai - IITM","08-11-2025 15:00:00",19.053536,72.84643,OZONE,2,130,24
India,Maharashtra,Mumbai,"Bandra Kurla Complex, Mumbai - MPCB","08-11-2025 15:00:00",19.065931,72.862131,SO2,4,8,5
India,Maharashtra,Mumbai,"Bandra Kurla Complex, Mumbai - MPCB","08-11-2025 15:00:00",19.065931,72.862131,CO,2,60,22
India,Maharashtra,Mumbai,"Malad West, Mumbai - IITM","08-11-2025 15:00:00",19.19709,72.82204,OZONE,4,147,76
India,Maharashtra,Mumbai,"Mazgaon, Mumbai - IITM","08-11-2025 15:00:00",18.96702,72.84214,PM2.5,67,150,95
India,Maharashtra,Mumbai,"Mazgaon, Mumbai - IITM","08-11-2025 15:00:00",18.96702,72.84214,SO2,7,16,10
India,Maharashtra,Mumbai,"Mindspace-Malad West, Mumbai - MPCB","08-11-2025 15:00:00",19.1878657,72.8304069,PM10,38,96,64
India,Maharashtra,Mumbai,"Mulund West, Mumbai - MPCB","08-11-2025 15:00:00",19.1750,72.9419,NH3,3,4,4
India,Maharashtra,Mumbai,"Powai, Mumbai - MPCB","08-11-2025 15:00:00",19.137500,72.915056,PM2.5,54,114,74
India,Maharashtra,Chandrapur,"MIDC Khutala, Chandrapur - MPCB","08-11-2025 15:00:00",19.9775302,79.2337086,OZONE,17,19,18
India,Maharashtra,Dhule,"Deopur, Dhule - MPCB","08-11-2025 15:00:00",20.918946,74.776388,OZONE,26,32,30
India,Maharashtra,Jalna,"Old MIDC, Jalna - MPCB","08-11-2025 15:00:00",19.854616,75.905894,NH3,2,5,4
India,Maharashtra,Kalyan,"Khadakpada, Kalyan - MPCB","08-11-2025 15:00:00",19.25292,73.142019,PM2.5,NA,NA,NA
India,Maharashtra,Kalyan,"Khadakpada, Kalyan - MPCB","08-11-2025 15:00:00",19.25292,73.142019,PM10,NA,NA,NA
India,Maharashtra,Kolhapur,"Shivaji University, Kolhapur - MPCB","08-11-2025 15:00:00",16.6870449,74.2505872,SO2,1,6,5
India,Maharashtra,Kolhapur,"Shivaji University, Kolhapur - MPCB","08-11-2025 15:00:00",16.6870449,74.2505872,CO,8,56,17
India,Maharashtra,Kolhapur,"Sinchan Bhavan, Kolhapur - MPCB","08-11-2025 15:00:00",16.7143745,74.2426398,CO,NA,NA,NA
India,Maharashtra,Latur,"Sawe Wadi, Latur - MPCB","08-11-2025 15:00:00",18.39963,76.57452,PM10,35,60,50
India,Maharashtra,Latur,"Sawe Wadi, Latur - MPCB","08-11-2025 15:00:00",18.39963,76.57452,NO2,8,37,16
India,Maharashtra,Mumbai,"Kherwadi_Bandra East, Mumbai - MPCB","08-11-2025 15:00:00",19.0632143,72.8456324,NO2,2,55,23
India,Maharashtra,Mumbai,"Kherwadi_Bandra East, Mumbai - MPCB","08-11-2025 15:00:00",19.0632143,72.8456324,NH3,2,12,8
India,Maharashtra,Mumbai,"Khindipada-Bhandup West, Mumbai - IITM","08-11-2025 15:00:00",19.1653323,72.922099,CO,19,56,40
India,Maharashtra,Mumbai,"Kurla, Mumbai - MPCB","08-11-2025 15:00:00",19.0863,72.8888,NO2,4,7,5
India,Maharashtra,Mumbai,"Kurla, Mumbai - MPCB","08-11-2025 15:00:00",19.0863,72.8888,NH3,1,2,1
India,Maharashtra,Mumbai,"Borivali East, Mumbai - IITM","08-11-2025 15:00:00",19.23241,72.86895,OZONE,13,114,80
India,Maharashtra,Mumbai,"Borivali East, Mumbai - MPCB","08-11-2025 15:00:00",19.2243333,72.8658113,PM2.5,39,69,55
India,Maharashtra,Mumbai,"Borivali East, Mumbai - MPCB","08-11-2025 15:00:00",19.2243333,72.8658113,OZONE,7,12,10
India,Maharashtra,Mumbai,"Byculla, Mumbai - BMC","08-11-2025 15:00:00",18.9767,72.8380,OZONE,5,153,45
India,Maharashtra,Chandrapur,"Chauhan Colony, Chandrapur - MPCB","08-11-2025 15:00:00",19.962900,79.298714,OZONE,19,19,19
India,Maharashtra,Chandrapur,"MIDC Khutala, Chandrapur - MPCB","08-11-2025 15:00:00",19.9775302,79.2337086,NO2,12,33,22
India,Maharashtra,Mumbai,"Ghatkopar, Mumbai - BMC","08-11-2025 15:00:00",19.083694,72.920967,PM2.5,44,96,69
India,Maharashtra,Mumbai,"Sion, Mumbai - MPCB","08-11-2025 15:00:00",19.047000,72.874600,OZONE,6,13,9
India,Maharashtra,Mumbai,"Vile Parle West, Mumbai - MPCB","08-11-2025 15:00:00",19.10861,72.83622,PM2.5,28,62,41
India,Maharashtra,Mumbai,"Vile Parle West, Mumbai - MPCB","08-11-2025 15:00:00",19.10861,72.83622,SO2,11,59,43
India,Maharashtra,Mumbai,"Worli, Mumbai - MPCB","08-11-2025 15:00:00",18.9936162,72.8128113,PM10,70,105,90
India,Maharashtra,Nagpur,"Ambazari, Nagpur - MPCB","08-11-2025 15:00:00",21.121801,79.04952,NO2,11,98,31
India,Maharashtra,Nagpur,"Ambazari, Nagpur - MPCB","08-11-2025 15:00:00",21.121801,79.04952,CO,9,116,20
India,Maharashtra,Nagpur,"Ambazari, Nagpur - MPCB","08-11-2025 15:00:00",21.121801,79.04952,OZONE,1,94,68
India,Maharashtra,Nagpur,"Mahal, Nagpur - MPCB","08-11-2025 15:00:00",21.14472,79.107595,PM2.5,80,162,120
India,Maharashtra,Pune,"Katraj Dairy, Pune - MPCB","08-11-2025 15:00:00",18.454450,73.854155,OZONE,NA,NA,NA
India,Maharashtra,Pune,"Mhada Colony, Pune - IITM","08-11-2025 15:00:00",18.573040,73.927715,OZONE,14,133,86
India,Maharashtra,Pune,"Revenue Colony-Shivajinagar, Pune - IITM","08-11-2025 15:00:00",18.530085,73.849598,PM2.5,79,143,108
India,Maharashtra,Pune,"Revenue Colony-Shivajinagar, Pune - IITM","08-11-2025 15:00:00",18.530085,73.849598,CO,47,99,66
India,Maharashtra,Pune,"Savitribai Phule Pune University, Pune - MPCB","08-11-2025 15:00:00",18.547056,73.826908,PM2.5,41,177,111
India,Maharashtra,Pune,"Savitribai Phule Pune University, Pune - MPCB","08-11-2025 15:00:00",18.547056,73.826908,NO2,14,29,22
India,Maharashtra,Pune,"Savitribai Phule Pune University, Pune - MPCB","08-11-2025 15:00:00",18.547056,73.826908,SO2,1,2,2
India,Maharashtra,"Navi Mumbai","Sector-2E Kalamboli, Navi Mumbai - MPCB","08-11-2025 15:00:00",19.02579,73.10297,NH3,3,14,7
India,Maharashtra,"Navi Mumbai","Sector-2E Kalamboli, Navi Mumbai - MPCB","08-11-2025 15:00:00",19.02579,73.10297,SO2,1,8,4
India,Maharashtra,"Navi Mumbai","Tondare-Taloja, Navi Mumbai - MPCB","08-11-2025 15:00:00",19.0630,73.1209,OZONE,11,11,11
India,Maharashtra,Pimpri-Chinchwad,"Gavalinagar, Pimpri Chinchwad - MPCB","08-11-2025 15:00:00",18.63673,73.82487,NH3,6,12,8
India,Maharashtra,Pimpri-Chinchwad,"Gavalinagar, Pimpri Chinchwad - MPCB","08-11-2025 15:00:00",18.63673,73.82487,CO,12,58,25
India,Maharashtra,Pimpri-Chinchwad,"Gavalinagar, Pimpri Chinchwad - MPCB","08-11-2025 15:00:00",18.63673,73.82487,OZONE,4,85,58
India,Maharashtra,Nashik,"Pandav Nagari, Nashik - MPCB","08-11-2025 15:00:00",19.9591346,73.7788008,NO2,6,38,15
India,Maharashtra,Nashik,"Pandav Nagari, Nashik - MPCB","08-11-2025 15:00:00",19.9591346,73.7788008,OZONE,6,55,35
India,Maharashtra,"Navi Mumbai","Nerul, Navi Mumbai - MPCB","08-11-2025 15:00:00",19.008751,73.016620,PM10,NA,NA,NA
India,Maharashtra,"Navi Mumbai","Sanpada, Navi Mumbai - MPCB","08-11-2025 15:00:00",19.0575752,73.0151367,OZONE,15,15,15
India,Maharashtra,"Navi Mumbai","Sector-2E Kalamboli, Navi Mumbai - MPCB","08-11-2025 15:00:00",19.02579,73.10297,PM2.5,73,303,186
India,Maharashtra,Mumbai,"Sewri, Mumbai - BMC","08-11-2025 15:00:00",19.000084,72.856730,PM10,16,82,36
India,Maharashtra,Mumbai,"Sewri, Mumbai - BMC","08-11-2025 15:00:00",19.000084,72.856730,NO2,1,9,2
India,Maharashtra,Mumbai,"Sewri, Mumbai - BMC","08-11-2025 15:00:00",19.000084,72.856730,SO2,8,119,53
India,Maharashtra,Mumbai,"Shivaji Nagar, Mumbai - BMC","08-11-2025 15:00:00",19.060498,72.923356,PM10,103,146,121
India,Maharashtra,Mumbai,"Shivaji Nagar, Mumbai - BMC","08-11-2025 15:00:00",19.060498,72.923356,CO,14,58,23
India,Maharashtra,Mumbai,"Sion, Mumbai - MPCB","08-11-2025 15:00:00",19.047000,72.874600,PM10,36,153,64
India,Maharashtra,Mumbai,"Sion, Mumbai - MPCB","08-11-2025 15:00:00",19.047000,72.874600,SO2,9,10,10
India,Maharashtra,Pimpri-Chinchwad,"Savta Mali Nagar, Pimpri-Chinchwad - IITM","08-11-2025 15:00:00",18.614767,73.799516,PM10,63,130,105
India,Maharashtra,Pimpri-Chinchwad,"Savta Mali Nagar, Pimpri-Chinchwad - IITM","08-11-2025 15:00:00",18.614767,73.799516,NO2,23,89,52
India,Maharashtra,Pimpri-Chinchwad,"Thergaon, Pimpri Chinchwad - MPCB","08-11-2025 15:00:00",18.616318,73.765797,PM2.5,65,232,131
India,Maharashtra,Pimpri-Chinchwad,"Thergaon, Pimpri Chinchwad - MPCB","08-11-2025 15:00:00",18.616318,73.765797,PM10,80,129,105
India,Maharashtra,Pune,"Dhankawadi, Pune - IITM","08-11-2025 15:00:00",18.459883,73.852193,PM2.5,NA,NA,NA
India,Maharashtra,Pune,"Dhankawadi, Pune - IITM","08-11-2025 15:00:00",18.459883,73.852193,PM10,NA,NA,NA
India,Maharashtra,Nagpur,"Opp GPO Civil Lines, Nagpur - MPCB","08-11-2025 15:00:00",21.152875,79.0517531,PM10,40,133,107
India,Maharashtra,Nagpur,"Opp GPO Civil Lines, Nagpur - MPCB","08-11-2025 15:00:00",21.152875,79.0517531,NO2,14,85,36
India,Maharashtra,Nagpur,"Opp GPO Civil Lines, Nagpur - MPCB","08-11-2025 15:00:00",21.152875,79.0517531,SO2,3,89,20
India,Maharashtra,Pune,"Transport Nagar-Nigdi, Pune - IITM","08-11-2025 15:00:00",18.664282,73.763966,PM2.5,29,99,58
India,Maharashtra,Pune,"Transport Nagar-Nigdi, Pune - IITM","08-11-2025 15:00:00",18.664282,73.763966,PM10,74,180,105
India,Maharashtra,Pune,"Transport Nagar-Nigdi, Pune - IITM","08-11-2025 15:00:00",18.664282,73.763966,OZONE,14,68,43
India,Maharashtra,Nanded,"Sneh Nagar, Nanded - MPCB","08-11-2025 15:00:00",19.173852,77.296291,CO,NA,NA,NA
India,Maharashtra,Nashik,"MIDC Ambad, Nashik - MPCB","08-11-2025 15:00:00",19.950220,73.731480,PM2.5,36,59,44
India,Maharashtra,Nashik,"MIDC Ambad, Nashik - MPCB","08-11-2025 15:00:00",19.950220,73.731480,CO,13,15,14
India,Meghalaya,Shillong,"JN Stadium, Shillong - Meghalaya PCB","08-11-2025 15:00:00",25.5803419,91.8942571,CO,8,54,17
India,Meghalaya,Shillong,"JN Stadium, Shillong - Meghalaya PCB","08-11-2025 15:00:00",25.5803419,91.8942571,OZONE,4,4,4
India,Meghalaya,Shillong,"Lumpyngngad, Shillong - Meghalaya PCB","08-11-2025 15:00:00",25.5586,91.8985,NO2,NA,NA,NA
India,Meghalaya,Shillong,"Lumpyngngad, Shillong - Meghalaya PCB","08-11-2025 15:00:00",25.5586,91.8985,SO2,5,7,6
India,Nagaland,Kohima,"PWD Junction, Kohima - NPCB","08-11-2025 15:00:00",25.6635413,94.0989878,OZONE,4,14,9
India,Odisha,Angul,"Hakimapada, Angul - OSPCB","08-11-2025 15:00:00",20.832874,85.104082,SO2,6,33,15
India,Odisha,Angul,"Hakimapada, Angul - OSPCB","08-11-2025 15:00:00",20.832874,85.104082,OZONE,19,114,77
India,Odisha,Balasore,"Kalidaspur, Balasore - OSPCB","08-11-2025 15:00:00",21.51161,86.89088,PM2.5,NA,NA,NA
India,Odisha,Balasore,"Kalidaspur, Balasore - OSPCB","08-11-2025 15:00:00",21.51161,86.89088,SO2,6,12,8
India,Odisha,Balasore,"Kalidaspur, Balasore - OSPCB","08-11-2025 15:00:00",21.51161,86.89088,CO,12,22,20
India,Odisha,Rourkela,"Raghunathpali, Rourkela - OSPCB","08-11-2025 15:00:00",22.220833,84.809444,OZONE,15,122,73
India,Odisha,Talcher,"Talcher Coalfields,Talcher - OSPCB","08-11-2025 15:00:00",20.9360711,85.1707021,PM2.5,7,285,113
India,Odisha,Tensa,"Barsua Iron Ore Mines, Tensa - OSPCB","08-11-2025 15:00:00",21.869985,85.167016,PM2.5,NA,NA,NA
India,Odisha,Tensa,"Barsua Iron Ore Mines, Tensa - OSPCB","08-11-2025 15:00:00",21.869985,85.167016,OZONE,NA,NA,NA
India,Puducherry,Puducherry,"Jawahar Nagar, Puducherry - PPCC","08-11-2025 15:00:00",11.9309,79.8027,PM2.5,42,219,77
India,Puducherry,Puducherry,"Jawahar Nagar, Puducherry - PPCC","08-11-2025 15:00:00",11.9309,79.8027,OZONE,2,61,34
India,Punjab,Amritsar,"Golden Temple, Amritsar - PPCB","08-11-2025 15:00:00",31.620000,74.876512,PM10,108,271,182
India,Punjab,Amritsar,"Golden Temple, Amritsar - PPCB","08-11-2025 15:00:00",31.620000,74.876512,NH3,5,6,6
India,Odisha,Bhubaneswar,"Patia, Bhubaneswar - OSPCB","08-11-2025 15:00:00",20.34652,85.81630,CO,19,102,40
India,Odisha,Bileipada,"Tata Township, Bileipada - OSPCB","08-11-2025 15:00:00",22.06156703,85.47409613,CO,20,34,28
India,Odisha,Brajrajnagar,"GM Office, Brajrajnagar - OSPCB","08-11-2025 15:00:00",21.8004996,83.8396977,PM2.5,35,149,69
India,Odisha,Brajrajnagar,"GM Office, Brajrajnagar - OSPCB","08-11-2025 15:00:00",21.8004996,83.8396977,NH3,9,15,12
India,Odisha,Byasanagar,"Ferro Chrome Colony, Byasanagar - OSPCB","08-11-2025 15:00:00",20.94185,86.11510,PM10,55,159,88
India,Odisha,Cuttack,"CDA Area, Cuttack - OSPCB","08-11-2025 15:00:00","20.48891     ","85.84768     ",PM10,84,207,135
India,Odisha,Cuttack,"CDA Area, Cuttack - OSPCB","08-11-2025 15:00:00","20.48891     ","85.84768     ",NO2,13,122,45
India,Rajasthan,Ajmer,"Civil Lines,  Ajmer - RSPCB","08-11-2025 15:00:00",26.470859,74.646594,CO,6,30,12
India,Rajasthan,Ajmer,"Civil Lines,  Ajmer - RSPCB","08-11-2025 15:00:00",26.470859,74.646594,OZONE,3,19,10
India,Rajasthan,Alwar,"Moti Doongri, Alwar - RSPCB","08-11-2025 15:00:00",27.554793,76.611536,NO2,52,85,64
India,Rajasthan,Banswara,"Rati Talai, Banswara - RSPCB","08-11-2025 15:00:00",23.555190,74.440010,PM10,70,265,126
India,Rajasthan,Baran,"Bamboliya, Baran - RSPCB","08-11-2025 15:00:00",25.106006,76.469948,PM2.5,13,120,64
India,Rajasthan,Baran,"Bamboliya, Baran - RSPCB","08-11-2025 15:00:00",25.106006,76.469948,PM10,69,167,106
India,Rajasthan,Baran,"Bamboliya, Baran - RSPCB","08-11-2025 15:00:00",25.106006,76.469948,NO2,21,43,26
India,Rajasthan,Barmer,"Railway Colony, Barmer - RSPCB","08-11-2025 15:00:00",25.747299,71.393989,PM10,100,316,149
India,Odisha,Barbil,"Forest Office, Barbil - OSPCB","08-11-2025 15:00:00",22.1166054,85.3945546,PM10,55,171,93
India,Odisha,Baripada,"Meher Colony, Baripada - OSPCB","08-11-2025 15:00:00",21.941841,86.728318,PM10,81,124,103
India,Odisha,Baripada,"Meher Colony, Baripada - OSPCB","08-11-2025 15:00:00",21.941841,86.728318,CO,17,51,27
India,Odisha,Bhubaneswar,"Lingraj Mandir, Bhubaneswar - OSPCB","08-11-2025 15:00:00",20.240790,85.836784,PM2.5,85,335,167
India,Odisha,Bhubaneswar,"Lingraj Mandir, Bhubaneswar - OSPCB","08-11-2025 15:00:00",20.240790,85.836784,SO2,3,38,13
India,Odisha,Bhubaneswar,"Lingraj Mandir, Bhubaneswar - OSPCB","08-11-2025 15:00:00",20.240790,85.836784,OZONE,3,234,193
India,Odisha,Keonjhar,"Jagamohanpur, Keonjhar - OSPCB","08-11-2025 15:00:00",21.643900,85.599355,NO2,19,39,28
India,Odisha,Keonjhar,"Jagamohanpur, Keonjhar - OSPCB","08-11-2025 15:00:00",21.643900,85.599355,SO2,7,31,12
India,Odisha,Keonjhar,"Jagamohanpur, Keonjhar - OSPCB","08-11-2025 15:00:00",21.643900,85.599355,CO,4,114,59
India,Odisha,Keonjhar,"Jagamohanpur, Keonjhar - OSPCB","08-11-2025 15:00:00",21.643900,85.599355,OZONE,17,31,20
India,Odisha,Rairangpur,"Divisional Forest Office, Rairangpur - OSPCB","08-11-2025 15:00:00",22.265816,86.174829,NO2,8,8,8
India,Odisha,Rourkela,"Fertilizer Township, Rourkela - OSPCB","08-11-2025 15:00:00",22.18972222,84.86277778,SO2,NA,NA,NA
India,Maharashtra,Thane,"Kasarvadavali, Thane - MPCB","08-11-2025 15:00:00",19.26777,72.97182,SO2,4,12,6
India,Maharashtra,Thane,"Upvan Fort, Thane - MPCB","08-11-2025 15:00:00",19.222279,72.957979,PM10,64,126,107
India,Maharashtra,Thane,"Upvan Fort, Thane - MPCB","08-11-2025 15:00:00",19.222279,72.957979,NO2,9,59,26
India,Maharashtra,Virar,"Bolinj, Virar - MPCB","08-11-2025 15:00:00",19.4458210,72.7988231,PM10,37,103,66
India,Maharashtra,Virar,"Bolinj, Virar - MPCB","08-11-2025 15:00:00",19.4458210,72.7988231,SO2,2,5,3
India,Maharashtra,Virar,"Bolinj, Virar - MPCB","08-11-2025 15:00:00",19.4458210,72.7988231,OZONE,18,74,44
India,Punjab,Jalandhar,"Civil Line, Jalandhar - PPCB","08-11-2025 15:00:00",31.321907,75.578914,SO2,16,17,17
India,Punjab,Khanna,"Kalal Majra, Khanna - PPCB","08-11-2025 15:00:00","30.736056 ",76.209694,NO2,27,30,28
India,Punjab,Ludhiana,"Punjab Agricultural University, Ludhiana - PPCB","08-11-2025 15:00:00",30.9028,75.8086,PM10,131,151,138
India,Punjab,Patiala,"Model Town, Patiala - PPCB","08-11-2025 15:00:00",30.349388,76.366642,OZONE,25,28,26
India,Punjab,Rupnagar,"Ratanpura, Rupnagar - Ambuja Cements","08-11-2025 15:00:00",31.0325454,76.5623046,PM2.5,21,194,71
India,Rajasthan,Bharatpur,"Krishna Nagar, Bharatpur - RSPCB","08-11-2025 15:00:00",27.215415,77.50873,PM2.5,23,191,63
India,Rajasthan,Bharatpur,"Krishna Nagar, Bharatpur - RSPCB","08-11-2025 15:00:00",27.215415,77.50873,PM10,41,228,101
India,Rajasthan,Bharatpur,"Krishna Nagar, Bharatpur - RSPCB","08-11-2025 15:00:00",27.215415,77.50873,NO2,21,149,56
India,Rajasthan,Bharatpur,"Krishna Nagar, Bharatpur - RSPCB","08-11-2025 15:00:00",27.215415,77.50873,CO,23,143,35
India,Rajasthan,Bhilwara,"Pratap Nagar, Bhilwara - RSPCB","08-11-2025 15:00:00",25.339605,74.618883,NO2,11,75,33
India,Rajasthan,Bhilwara,"Pratap Nagar, Bhilwara - RSPCB","08-11-2025 15:00:00",25.339605,74.618883,NH3,2,29,6
India,Rajasthan,Bhilwara,"Pratap Nagar, Bhilwara - RSPCB","08-11-2025 15:00:00",25.339605,74.618883,SO2,6,41,21
India,Rajasthan,Bhiwadi,"RIICO Ind. Area III, Bhiwadi - RSPCB","08-11-2025 15:00:00",28.194909,76.862296,PM2.5,117,329,230
India,Rajasthan,Bhiwadi,"RIICO Ind. Area III, Bhiwadi - RSPCB","08-11-2025 15:00:00",28.194909,76.862296,NO2,14,69,38
India,Rajasthan,Hanumangarh,"Housing Board, Hanumangarh - RSPCB","08-11-2025 15:00:00",29.610750,74.283608,NH3,10,53,22
India,Rajasthan,Hanumangarh,"Housing Board, Hanumangarh - RSPCB","08-11-2025 15:00:00",29.610750,74.283608,OZONE,5,97,60
India,Rajasthan,Jaipur,"Adarsh Nagar, Jaipur - RSPCB","08-11-2025 15:00:00",26.902909,75.836858,PM10,97,164,132
India,Rajasthan,Jaipur,"Adarsh Nagar, Jaipur - RSPCB","08-11-2025 15:00:00",26.902909,75.836858,SO2,4,37,23
India,Rajasthan,Jaipur,"Police Commissionerate, Jaipur - RSPCB","08-11-2025 15:00:00",26.9164092,75.7994901,SO2,7,9,8
India,Rajasthan,Jaipur,"Police Commissionerate, Jaipur - RSPCB","08-11-2025 15:00:00",26.9164092,75.7994901,CO,25,87,63
India,Rajasthan,Jaipur,"RIICO Sitapura, Jaipur - RSPCB","08-11-2025 15:00:00",26.786682,75.827928,PM10,103,361,173
India,Rajasthan,Jaipur,"Sector-2 Murlipura, Jaipur - RSPCB","08-11-2025 15:00:00",26.960669,75.771817,NO2,23,125,59
India,Rajasthan,Jaipur,"Shastri Nagar, Jaipur - RSPCB","08-11-2025 15:00:00",26.9502929,75.730943,PM2.5,64,233,134
India,Rajasthan,Jaipur,"Shastri Nagar, Jaipur - RSPCB","08-11-2025 15:00:00",26.9502929,75.730943,CO,48,106,87
India,Rajasthan,Jaisalmer,"Sadar Bazar, Jaisalmer - RSPCB","08-11-2025 15:00:00",26.912329,70.909168,NO2,10,131,45
India,Rajasthan,Jaisalmer,"Sadar Bazar, Jaisalmer - RSPCB","08-11-2025 15:00:00",26.912329,70.909168,SO2,4,13,6
India,Rajasthan,Jaisalmer,"Sadar Bazar, Jaisalmer - RSPCB","08-11-2025 15:00:00",26.912329,70.909168,CO,19,136,34
India,Rajasthan,Bhiwadi,"Vasundhara Nagar_UIT, Bhiwadi - RSPCB","08-11-2025 15:00:00",28.207266,76.829265,CO,17,80,37
India,Rajasthan,Bhiwadi,"Vasundhara Nagar_UIT, Bhiwadi - RSPCB","08-11-2025 15:00:00",28.207266,76.829265,OZONE,8,165,94
India,Rajasthan,Bundi,"New Colony, Bundi - RSPCB","08-11-2025 15:00:00",25.435774,75.644272,PM2.5,30,213,69
India,Rajasthan,Bundi,"New Colony, Bundi - RSPCB","08-11-2025 15:00:00",25.435774,75.644272,OZONE,12,149,106
India,Rajasthan,Chittorgarh,"Shastri Nagar, Chittorgarh - RSPCB","08-11-2025 15:00:00",24.892047,74.623527,PM2.5,10,325,99
India,Rajasthan,Jodhpur,"Jhalamand, Jodhpur - RSPCB","08-11-2025 15:00:00",26.215415,73.070156,NH3,5,31,18
India,Rajasthan,Jodhpur,"Samrat Ashok Udhyan, Jodhpur - RSPCB","08-11-2025 15:00:00",26.253384,72.976571,SO2,2,9,4
India,Rajasthan,Jodhpur,"Samrat Ashok Udhyan, Jodhpur - RSPCB","08-11-2025 15:00:00",26.253384,72.976571,CO,28,114,50
India,Rajasthan,Jodhpur,"Samrat Ashok Udhyan, Jodhpur - RSPCB","08-11-2025 15:00:00",26.253384,72.976571,OZONE,3,150,150
India,Rajasthan,Karauli,"Satyawati Vihar, Karauli - RSPCB","08-11-2025 15:00:00",26.506177,77.025989,NH3,4,12,9
India,Rajasthan,Jhunjhunu,"Indra Nagar, Jhunjhunu - RSPCB","08-11-2025 15:00:00",28.108988,75.386577,PM10,85,271,157
India,Rajasthan,Jodhpur,"Collectorate, Jodhpur - RSPCB","08-11-2025 15:00:00",26.268249,73.0193853,PM10,59,403,163
India,Rajasthan,Jodhpur,"Collectorate, Jodhpur - RSPCB","08-11-2025 15:00:00",26.268249,73.0193853,OZONE,9,67,32
India,Rajasthan,Jodhpur,"Digari Kalan, Jodhpur - RSPCB","08-11-2025 15:00:00",26.295810,73.082283,SO2,3,6,4
India,Rajasthan,Pratapgarh,"Pragati Nagar, Pratapgarh - RSPCB","08-11-2025 15:00:00",24.041198,74.780702,NH3,2,7,5
India,Rajasthan,Pratapgarh,"Pragati Nagar, Pratapgarh - RSPCB","08-11-2025 15:00:00",24.041198,74.780702,SO2,2,6,4
India,Rajasthan,Rajsamand,"Dhoinda, Rajsamand - RSPCB","08-11-2025 15:00:00",25.036360,73.883502,PM2.5,8,130,32
India,Rajasthan,"Sawai Madhopur","Sahu Nagar, Sawai Madhopur - RSPCB","08-11-2025 15:00:00",26.031443,76.359327,NH3,6,10,8
India,Rajasthan,Dausa,"Khatikan Mohalla, Dausa - RSPCB","08-11-2025 15:00:00",26.895552,76.334753,NH3,5,23,10
India,Rajasthan,Dholpur,"Raja Ganj, Dholpur - RSPCB","08-11-2025 15:00:00",26.699557,77.898881,SO2,2,31,16
India,Rajasthan,Dholpur,"Raja Ganj, Dholpur - RSPCB","08-11-2025 15:00:00",26.699557,77.898881,OZONE,9,106,14
India,Rajasthan,Dungarpur,"Bhoiwada, Dungarpur - RSPCB","08-11-2025 15:00:00",23.837789,73.714926,NH3,3,6,4
India,Rajasthan,Kota,"Dhanmandi, Kota - RSPCB","08-11-2025 15:00:00",25.164090,75.858137,CO,29,120,36
India,Rajasthan,Kota,"Nayapura, Kota - RSPCB","08-11-2025 15:00:00",25.196024,75.855668,PM2.5,37,253,120
India,Rajasthan,Kota,"Nayapura, Kota - RSPCB","08-11-2025 15:00:00",25.196024,75.855668,OZONE,2,168,93
India,Rajasthan,Kota,"Shrinath Puram, Kota - RSPCB","08-11-2025 15:00:00",25.14389,75.821256,SO2,3,34,9
India,Rajasthan,"Sawai Madhopur","Sahu Nagar, Sawai Madhopur - RSPCB","08-11-2025 15:00:00",26.031443,76.359327,CO,20,114,32
India,Rajasthan,Sikar,"Radhakishan Pura, Sikar - RSPCB","08-11-2025 15:00:00",27.608912,75.153302,PM10,116,433,220
India,Rajasthan,Sikar,"Radhakishan Pura, Sikar - RSPCB","08-11-2025 15:00:00",27.608912,75.153302,OZONE,8,96,60
India,Rajasthan,Sirohi,"Vedhaynath Colony, Sirohi - RSPCB","08-11-2025 15:00:00",24.885261,72.857549,OZONE,22,91,66
India,Rajasthan,"Sri Ganganagar","Old City, Sri Ganganagar - RSPCB","08-11-2025 15:00:00",29.931624,73.864511,PM10,78,500,204
India,Rajasthan,"Sri Ganganagar","Old City, Sri Ganganagar - RSPCB","08-11-2025 15:00:00",29.931624,73.864511,SO2,1,16,5
India,Rajasthan,Tonk,"Shastri Nagar, Tonk - RSPCB","08-11-2025 15:00:00",26.159933,75.780517,NO2,12,128,38
India,Rajasthan,Tonk,"Shastri Nagar, Tonk - RSPCB","08-11-2025 15:00:00",26.159933,75.780517,CO,20,119,29
India,TamilNadu,Chennai,"Gandhi Nagar_Ennore, Chennai - TNPCB","08-11-2025 15:00:00",13.218341,80.32027,PM10,18,71,41
India,TamilNadu,Chennai,"Gandhi Nagar_Ennore, Chennai - TNPCB","08-11-2025 15:00:00",13.218341,80.32027,CO,8,9,8
India,TamilNadu,Chennai,"Gandhi Nagar_Ennore, Chennai - TNPCB","08-11-2025 15:00:00",13.218341,80.32027,OZONE,6,19,13
India,TamilNadu,Chennai,"Kodungaiyur, Chennai - TNPCB","08-11-2025 15:00:00",13.1278,80.2642,CO,20,55,30
India,TamilNadu,Chennai,"Manali Village, Chennai - TNPCB","08-11-2025 15:00:00",13.1662,80.2584,PM10,31,186,105
India,TamilNadu,Chennai,"Manali Village, Chennai - TNPCB","08-11-2025 15:00:00",13.1662,80.2584,CO,30,46,38
India,TamilNadu,Chennai,"Manali, Chennai - CPCB","08-11-2025 15:00:00",13.164544,80.26285,PM2.5,1,341,78
India,TamilNadu,Chennai,"Manali, Chennai - CPCB","08-11-2025 15:00:00",13.164544,80.26285,PM10,65,125,86
India,TamilNadu,Chennai,"Manali, Chennai - CPCB","08-11-2025 15:00:00",13.164544,80.26285,SO2,12,24,17
India,TamilNadu,Chennai,"Manali, Chennai - CPCB","08-11-2025 15:00:00",13.164544,80.26285,OZONE,10,11,10
India,TamilNadu,Ooty,"Bombay Castel, Ooty - TNPCB","08-11-2025 15:00:00",11.4068288,76.7138973,PM2.5,43,186,76
India,TamilNadu,Ooty,"Bombay Castel, Ooty - TNPCB","08-11-2025 15:00:00",11.4068288,76.7138973,PM10,40,129,73
India,TamilNadu,Ooty,"Bombay Castel, Ooty - TNPCB","08-11-2025 15:00:00",11.4068288,76.7138973,SO2,5,9,7
India,TamilNadu,Palkalaiperur,"Bharathidasan University, Palkalaiperur - TNPCB","08-11-2025 15:00:00",10.681158,78.741746,PM2.5,38,62,48
India,TamilNadu,Palkalaiperur,"Bharathidasan University, Palkalaiperur - TNPCB","08-11-2025 15:00:00",10.681158,78.741746,PM10,53,68,60
India,TamilNadu,Palkalaiperur,"Bharathidasan University, Palkalaiperur - TNPCB","08-11-2025 15:00:00",10.681158,78.741746,NH3,1,2,1
India,TamilNadu,Perundurai,"SIPCOT Industrial Park, Perundurai - TNPCB","08-11-2025 15:00:00",11.258242,77.552761,NH3,2,3,2
India,TamilNadu,Ramanathapuram,"Chalai Bazaar, Ramanathapuram - TNPCB","08-11-2025 15:00:00",9.36399,78.831977,PM10,17,56,38
India,TamilNadu,Chennai,"Perungudi, Chennai - TNPCB","08-11-2025 15:00:00",12.9533,80.2357,NO2,3,13,6
India,TamilNadu,Chennai,"Royapuram, Chennai - TNPCB","08-11-2025 15:00:00",13.1036,80.2909,PM2.5,55,323,101
India,TamilNadu,Chennai,"Royapuram, Chennai - TNPCB","08-11-2025 15:00:00",13.1036,80.2909,NO2,13,81,39
India,TamilNadu,Chennai,"Velachery Res. Area, Chennai - CPCB","08-11-2025 15:00:00",13.0052189,80.2398125,PM10,103,123,112
India,TamilNadu,Chennai,"Velachery Res. Area, Chennai - CPCB","08-11-2025 15:00:00",13.0052189,80.2398125,NO2,13,16,14
India,TamilNadu,Coimbatore,"PSG College of Arts and Science, Coimbatore - TNPCB","08-11-2025 15:00:00",11.0328,77.0349,OZONE,4,6,5
India,TamilNadu,Coimbatore,"SIDCO Kurichi, Coimbatore - TNPCB","08-11-2025 15:00:00",10.942451,76.978996,NO2,12,24,19
India,TamilNadu,Tirunelveli,"Municipal Corporation Office, Tirunelveli - TNPCB","08-11-2025 15:00:00",8.728442,77.6962,SO2,15,19,19
India,TamilNadu,Vellore,"Vasanthapuram, Vellore - TNPCB","08-11-2025 15:00:00",12.909494,79.131861,CO,8,8,8
India,TamilNadu,Vellore,"Vasanthapuram, Vellore - TNPCB","08-11-2025 15:00:00",12.909494,79.131861,OZONE,4,91,53
India,TamilNadu,Virudhunagar,"Collectorate Office, Virudhunagar - TNPCB","08-11-2025 15:00:00",9.559382,77.948828,NO2,20,20,20
India,Telangana,Hyderabad,"Bollaram Industrial Area, Hyderabad - TSPCB","08-11-2025 15:00:00",17.540891,78.358528,SO2,4,8,7
India,Telangana,Hyderabad,"Bollaram Industrial Area, Hyderabad - TSPCB","08-11-2025 15:00:00",17.540891,78.358528,CO,18,37,32
India,TamilNadu,Cuddalore,"Kudikadu, Cuddalore - TNPCB","08-11-2025 15:00:00",11.6829898,79.7532099,NO2,19,19,19
India,TamilNadu,Cuddalore,"Kudikadu, Cuddalore - TNPCB","08-11-2025 15:00:00",11.6829898,79.7532099,NH3,4,5,4
India,TamilNadu,Cuddalore,"Kudikadu, Cuddalore - TNPCB","08-11-2025 15:00:00",11.6829898,79.7532099,OZONE,13,15,14
India,TamilNadu,Dindigul,"Mendonsa Colony, Dindigul - TNPCB","08-11-2025 15:00:00",10.358535,77.984321,NO2,6,10,8
India,TamilNadu,Dindigul,"Mendonsa Colony, Dindigul - TNPCB","08-11-2025 15:00:00",10.358535,77.984321,NH3,2,3,3
India,TamilNadu,Hosur,"SIPCOT Phase-1, Hosur - TNPCB","08-11-2025 15:00:00",12.746998,77.813811,NO2,1,2,2
India,TamilNadu,Hosur,"SIPCOT Phase-1, Hosur - TNPCB","08-11-2025 15:00:00",12.746998,77.813811,SO2,20,25,21
India,TamilNadu,Kanchipuram,"Kilambi, Kanchipuram - TNPCB","08-11-2025 15:00:00",12.864618,79.659968,SO2,8,12,10
India,TamilNadu,Karur,"Kamadenu Nagar, Karur - TNPCB","08-11-2025 15:00:00",10.967820,78.080882,NO2,NA,NA,NA
India,TamilNadu,Karur,"Kamadenu Nagar, Karur - TNPCB","08-11-2025 15:00:00",10.967820,78.080882,OZONE,6,10,8
India,TamilNadu,Nagapattinam,"Velippalayam, Nagapattinam - TNPCB","08-11-2025 15:00:00",10.798548,79.838212,CO,14,24,21
India,TamilNadu,Nagapattinam,"Velippalayam, Nagapattinam - TNPCB","08-11-2025 15:00:00",10.798548,79.838212,OZONE,1,1,1
India,TamilNadu,Namakkal,"Ponnusamy Nagar, Namakkal - TNPCB","08-11-2025 15:00:00",11.273992,78.163545,NO2,10,10,10
India,TamilNadu,Ramanathapuram,"Chalai Bazaar, Ramanathapuram - TNPCB","08-11-2025 15:00:00",9.36399,78.831977,SO2,2,4,3
India,TamilNadu,Salem,"Sona College of Technology, Salem - TNPCB","08-11-2025 15:00:00",11.679111,78.125052,PM2.5,32,91,54
India,TamilNadu,Tiruchirappalli,"St Joseph College, Tiruchirappalli - TNPCB","08-11-2025 15:00:00",10.830158,78.691849,SO2,10,14,13
India,TamilNadu,Tirunelveli,"Municipal Corporation Office, Tirunelveli - TNPCB","08-11-2025 15:00:00",8.728442,77.6962,PM10,17,37,26
India,Rajasthan,Udaipur,"Ashok Nagar, Udaipur - RSPCB","08-11-2025 15:00:00",24.5886166,73.6321397,OZONE,1,69,27
India,TamilNadu,Chengalpattu,"Crescent University, Chengalpattu - TNPCB","08-11-2025 15:00:00",12.8777316,80.0834807,OZONE,5,32,11
India,Telangana,Hyderabad,"Ramachandrapuram, Hyderabad - TSPCB","08-11-2025 15:00:00",17.528544,78.286195,NO2,8,11,9
India,Telangana,Hyderabad,"Ramachandrapuram, Hyderabad - TSPCB","08-11-2025 15:00:00",17.528544,78.286195,CO,28,41,32
India,Telangana,Hyderabad,"Sanathnagar, Hyderabad - TSPCB","08-11-2025 15:00:00",17.4559458,78.4332152,PM2.5,22,128,76
India,Telangana,Hyderabad,"Sanathnagar, Hyderabad - TSPCB","08-11-2025 15:00:00",17.4559458,78.4332152,NO2,26,29,28
India,Telangana,Hyderabad,"Sanathnagar, Hyderabad - TSPCB","08-11-2025 15:00:00",17.4559458,78.4332152,SO2,2,9,6
India,Telangana,Hyderabad,"Somajiguda, Hyderabad - TSPCB","08-11-2025 15:00:00",17.417094,78.457437,PM2.5,38,64,47
India,Telangana,Hyderabad,"Somajiguda, Hyderabad - TSPCB","08-11-2025 15:00:00",17.417094,78.457437,PM10,41,57,48
India,Telangana,Hyderabad,"Somajiguda, Hyderabad - TSPCB","08-11-2025 15:00:00",17.417094,78.457437,NH3,4,5,5
India,Telangana,Hyderabad,"Zoo Park, Hyderabad - TSPCB","08-11-2025 15:00:00",17.349694,78.451437,NO2,7,22,17
India,Uttar_Pradesh,Bulandshahr,"Yamunapuram, Bulandshahr - UPPCB","08-11-2025 15:00:00",28.406963,77.849831,SO2,17,68,30
India,Uttar_Pradesh,Firozabad,"Vibhab Nagar, Firozabad - UPPCB","08-11-2025 15:00:00",27.1594,78.3953,SO2,3,48,15
India,Uttar_Pradesh,Firozabad,"Vibhab Nagar, Firozabad - UPPCB","08-11-2025 15:00:00",27.1594,78.3953,CO,14,24,19
India,Uttar_Pradesh,Ghaziabad,"Indirapuram, Ghaziabad - UPPCB","08-11-2025 15:00:00",28.646233,77.358075,PM2.5,154,335,278
India,Uttar_Pradesh,Ghaziabad,"Indirapuram, Ghaziabad - UPPCB","08-11-2025 15:00:00",28.646233,77.358075,CO,31,108,74
India,Uttar_Pradesh,Ghaziabad,"Loni, Ghaziabad - UPPCB","08-11-2025 15:00:00",28.757294,77.278792,PM2.5,99,500,364
India,Uttar_Pradesh,Kanpur,"FTI Kidwai Nagar, Kanpur - UPPCB","08-11-2025 15:00:00",26.428282,80.327067,NO2,25,25,25
India,Uttar_Pradesh,Kanpur,"FTI Kidwai Nagar, Kanpur - UPPCB","08-11-2025 15:00:00",26.428282,80.327067,NH3,2,2,2
India,Uttar_Pradesh,Kanpur,"FTI Kidwai Nagar, Kanpur - UPPCB","08-11-2025 15:00:00",26.428282,80.327067,OZONE,21,24,21
India,Uttar_Pradesh,Kanpur,"NSI Kalyanpur, Kanpur - UPPCB","08-11-2025 15:00:00",26.509954,80.249612,PM2.5,83,350,266
India,Uttar_Pradesh,Kanpur,"NSI Kalyanpur, Kanpur - UPPCB","08-11-2025 15:00:00",26.509954,80.249612,PM10,115,267,181
India,Uttar_Pradesh,Kanpur,"NSI Kalyanpur, Kanpur - UPPCB","08-11-2025 15:00:00",26.509954,80.249612,NO2,22,22,22
India,Uttar_Pradesh,Kanpur,"NSI Kalyanpur, Kanpur - UPPCB","08-11-2025 15:00:00",26.509954,80.249612,CO,39,68,54
India,Uttar_Pradesh,Kanpur,"NSI Kalyanpur, Kanpur - UPPCB","08-11-2025 15:00:00",26.509954,80.249612,OZONE,16,18,17
India,Uttar_Pradesh,Baghpat,"Sardar Patel Inter College, Baghpat - UPPCB","08-11-2025 15:00:00",28.964949,77.278761,NH3,4,10,7
India,Uttar_Pradesh,Bareilly,"Civil Lines, Bareilly - UPPCB","08-11-2025 15:00:00",28.359581,79.414455,PM10,47,102,67
India,Uttar_Pradesh,Bareilly,"Civil Lines, Bareilly - UPPCB","08-11-2025 15:00:00",28.359581,79.414455,CO,56,108,71
India,Uttar_Pradesh,Bareilly,"Civil Lines, Bareilly - UPPCB","08-11-2025 15:00:00",28.359581,79.414455,OZONE,12,47,20
India,Uttar_Pradesh,Bareilly,"Rajendra Nagar, Bareilly - UPPCB","08-11-2025 15:00:00",28.38910936,79.42963708,PM10,64,144,113
India,Uttar_Pradesh,Bareilly,"Rajendra Nagar, Bareilly - UPPCB","08-11-2025 15:00:00",28.38910936,79.42963708,CO,22,66,35
India,Uttar_Pradesh,Ghaziabad,"Loni, Ghaziabad - UPPCB","08-11-2025 15:00:00",28.757294,77.278792,OZONE,8,74,39
India,Uttar_Pradesh,Ghaziabad,"Sanjay Nagar, Ghaziabad - UPPCB","08-11-2025 15:00:00",28.685382,77.453839,PM2.5,77,467,298
India,Uttar_Pradesh,Ghaziabad,"Vasundhara, Ghaziabad - UPPCB","08-11-2025 15:00:00",28.6603346,77.3572563,NH3,7,13,10
India,Uttar_Pradesh,Ghaziabad,"Vasundhara, Ghaziabad - UPPCB","08-11-2025 15:00:00",28.6603346,77.3572563,CO,23,120,79
India,Uttar_Pradesh,Gorakhpur,"Madan Mohan Malaviya University of Technology, Gorakhpur - UPPCB","08-11-2025 15:00:00",26.730136,83.433859,PM10,39,140,96
India,Uttar_Pradesh,"Greater Noida","Knowledge Park - III, Greater Noida - UPPCB","08-11-2025 15:00:00",28.47272,77.482000,CO,36,114,76
India,Uttar_Pradesh,"Greater Noida","Knowledge Park - V, Greater Noida - UPPCB","08-11-2025 15:00:00",28.557054,77.453663,OZONE,16,36,24
India,Uttar_Pradesh,Jhansi,"Shivaji Nagar, Jhansi - UPPCB","08-11-2025 15:00:00",25.4547,78.6039,PM10,31,151,83
India,Uttar_Pradesh,Jhansi,"Shivaji Nagar, Jhansi - UPPCB","08-11-2025 15:00:00",25.4547,78.6039,NO2,6,6,6
India,Uttar_Pradesh,Kanpur,"FTI Kidwai Nagar, Kanpur - UPPCB","08-11-2025 15:00:00",26.428282,80.327067,PM10,88,272,179
India,Telangana,Hyderabad,"Central University, Hyderabad - TSPCB","08-11-2025 15:00:00",17.460103,78.334361,NH3,1,7,5
India,Telangana,Hyderabad,"Central University, Hyderabad - TSPCB","08-11-2025 15:00:00",17.460103,78.334361,SO2,1,7,4
India,Telangana,Hyderabad,"Central University, Hyderabad - TSPCB","08-11-2025 15:00:00",17.460103,78.334361,OZONE,4,21,17
India,Telangana,Hyderabad,"ECIL Kapra, Hyderabad - TSPCB","08-11-2025 15:00:00",17.470431,78.566959,OZONE,58,59,58
India,Telangana,Hyderabad,"ICRISAT Patancheru, Hyderabad - TSPCB","08-11-2025 15:00:00",17.518400,78.278777,CO,8,35,17
India,Telangana,Hyderabad,"Kokapet, Hyderabad - TSPCB","08-11-2025 15:00:00",17.393559,78.339194,NH3,3,4,3
India,Telangana,Hyderabad,"Kokapet, Hyderabad - TSPCB","08-11-2025 15:00:00",17.393559,78.339194,SO2,12,19,14
India,Telangana,Hyderabad,"Kompally Municipal Office, Hyderabad - TSPCB","08-11-2025 15:00:00",17.544899,78.486949,NO2,12,18,13
India,Telangana,Hyderabad,"New Malakpet, Hyderabad - TSPCB","08-11-2025 15:00:00",17.37206,78.50864,NO2,15,17,16
India,Telangana,Hyderabad,"New Malakpet, Hyderabad - TSPCB","08-11-2025 15:00:00",17.37206,78.50864,NH3,3,4,4
India,Uttar_Pradesh,Agra,"Rohta, Agra - UPPCB","08-11-2025 15:00:00",27.106972,78.000111,CO,30,57,35
India,Uttar_Pradesh,Agra,"Sector-3B Avas Vikas Colony, Agra - UPPCB","08-11-2025 15:00:00",27.19412,77.96237,PM2.5,22,302,104
India,Uttar_Pradesh,Agra,"Shahjahan Garden, Agra - UPPCB","08-11-2025 15:00:00",27.169338,78.03582,CO,14,83,23
India,Uttarakhand,Dehradun,"Doon University, Dehradun - UKPCB","08-11-2025 15:00:00",30.269444,78.044167,OZONE,22,60,43
India,Uttarakhand,Kashipur,"Govt. Girls Inter College, Kashipur - UKPCB","08-11-2025 15:00:00",29.2124114,78.9611753,PM10,77,171,135
India,Uttarakhand,Kashipur,"Govt. Girls Inter College, Kashipur - UKPCB","08-11-2025 15:00:00",29.2124114,78.9611753,NO2,9,59,18
India,Uttarakhand,Rishikesh,"Shivaji Nagar, Rishikesh - UKPCB","08-11-2025 15:00:00",30.075911,78.2859547,PM10,40,75,55
India,Uttarakhand,Rishikesh,"Shivaji Nagar, Rishikesh - UKPCB","08-11-2025 15:00:00",30.075911,78.2859547,NO2,11,14,12
India,Uttarakhand,Rishikesh,"Shivaji Nagar, Rishikesh - UKPCB","08-11-2025 15:00:00",30.075911,78.2859547,CO,14,36,20
India,West_Bengal,Asansol,"Asansol Court Area, Asansol - WBPCB","08-11-2025 15:00:00",23.685297,86.945968,NO2,16,28,23
India,West_Bengal,Asansol,"Evelyn Lodge, Asansol - WBPCB","08-11-2025 15:00:00",23.6979360,86.9443950,NH3,3,3,3
India,Uttar_Pradesh,Lucknow,"Kukrail Picnic Spot-1, Lucknow - UPPCB","08-11-2025 15:00:00",26.90723,80.98579,OZONE,10,36,25
India,Uttar_Pradesh,Lucknow,"Lalbagh, Lucknow - CPCB","08-11-2025 15:00:00",26.8458805,80.9365541,PM2.5,64,301,176
India,Uttar_Pradesh,Lucknow,"Lalbagh, Lucknow - CPCB","08-11-2025 15:00:00",26.8458805,80.9365541,NO2,11,65,44
India,Uttar_Pradesh,Lucknow,"Lalbagh, Lucknow - CPCB","08-11-2025 15:00:00",26.8458805,80.9365541,CO,2,57,25
India,Uttar_Pradesh,Lucknow,"Talkatora District Industries Center, Lucknow - CPCB","08-11-2025 15:00:00",26.83399722,80.8917361,NO2,41,59,47
India,Uttar_Pradesh,Lucknow,"Talkatora District Industries Center, Lucknow - CPCB","08-11-2025 15:00:00",26.83399722,80.8917361,NH3,8,14,10
India,Uttar_Pradesh,Meerut,"Ganga Nagar, Meerut - UPPCB","08-11-2025 15:00:00",28.999264,77.7590354,SO2,3,36,24
India,Uttar_Pradesh,Meerut,"Jai Bhim Nagar, Meerut - UPPCB","08-11-2025 15:00:00",28.9535882,77.7622941,NO2,29,108,66
India,Uttar_Pradesh,Khurja,"Kalindi Kunj, Khurja - UPPCB","08-11-2025 15:00:00",28.2348927,77.8683002,PM2.5,113,408,287
India,Uttar_Pradesh,Khurja,"Kalindi Kunj, Khurja - UPPCB","08-11-2025 15:00:00",28.2348927,77.8683002,NH3,1,1,1
India,Uttar_Pradesh,Khurja,"Kalindi Kunj, Khurja - UPPCB","08-11-2025 15:00:00",28.2348927,77.8683002,SO2,14,15,15
India,Uttar_Pradesh,Lucknow,"B R Ambedkar University, Lucknow - UPPCB","08-11-2025 15:00:00",26.766433,80.927299,SO2,25,26,25
India,Uttar_Pradesh,Lucknow,"Gomti Nagar, Lucknow - UPPCB","08-11-2025 15:00:00",26.868120,81.005119,CO,32,40,37
India,Uttar_Pradesh,Lucknow,"Gomti Nagar, Lucknow - UPPCB","08-11-2025 15:00:00",26.868120,81.005119,OZONE,29,42,37
India,Uttar_Pradesh,Lucknow,"Kendriya Vidyalaya, Lucknow - CPCB","08-11-2025 15:00:00",26.906111,80.948222,NO2,28,50,40
India,Uttar_Pradesh,Lucknow,"Kendriya Vidyalaya, Lucknow - CPCB","08-11-2025 15:00:00",26.906111,80.948222,CO,19,77,40
India,Uttar_Pradesh,Lucknow,"Kendriya Vidyalaya, Lucknow - CPCB","08-11-2025 15:00:00",26.906111,80.948222,OZONE,10,79,42
India,Uttar_Pradesh,Varanasi,"Bhelupur, Varanasi - UPPCB","08-11-2025 15:00:00",25.301778,82.996789,NO2,8,8,8
India,Uttar_Pradesh,Varanasi,"Bhelupur, Varanasi - UPPCB","08-11-2025 15:00:00",25.301778,82.996789,NH3,1,1,1
India,Uttar_Pradesh,Varanasi,"IESD Banaras Hindu University, Varanasi - UPPCB","08-11-2025 15:00:00",25.262326,82.995408,PM2.5,20,82,44
India,Uttar_Pradesh,Varanasi,"IESD Banaras Hindu University, Varanasi - UPPCB","08-11-2025 15:00:00",25.262326,82.995408,PM10,38,121,82
India,Uttar_Pradesh,Varanasi,"IESD Banaras Hindu University, Varanasi - UPPCB","08-11-2025 15:00:00",25.262326,82.995408,SO2,23,33,26
India,Uttar_Pradesh,Varanasi,"IESD Banaras Hindu University, Varanasi - UPPCB","08-11-2025 15:00:00",25.262326,82.995408,CO,6,26,9
India,Uttar_Pradesh,Varanasi,"Maldahiya, Varanasi - UPPCB","08-11-2025 15:00:00",25.32393,82.99687,SO2,28,29,29
India,Uttar_Pradesh,Varanasi,"Maldahiya, Varanasi - UPPCB","08-11-2025 15:00:00",25.32393,82.99687,CO,14,29,17
India,Uttar_Pradesh,Vrindavan,"Omex Eternity, Vrindavan - UPPCB","08-11-2025 15:00:00",27.5714090,77.6557570,SO2,10,19,11
India,West_Bengal,Asansol,"Mahabir Colliery, Asansol - WBPCB","08-11-2025 15:00:00",23.6181830,87.1057180,CO,8,45,14
India,West_Bengal,Asansol,"Trivenidevi Bhalotia College, Asansol - WBPCB","08-11-2025 15:00:00",23.616515,87.119133,NO2,11,48,20
India,West_Bengal,Asansol,"Trivenidevi Bhalotia College, Asansol - WBPCB","08-11-2025 15:00:00",23.616515,87.119133,NH3,2,4,3
India,West_Bengal,Barrackpore,"SVSPA Campus, Barrackpore - WBPCB","08-11-2025 15:00:00",22.7605581,88.3617589,SO2,9,13,11
India,West_Bengal,Durgapur,"Mahishkapur Road_B-Zone, Durgapur - WBPCB","08-11-2025 15:00:00",23.567923,87.306843,PM2.5,33,81,50
India,West_Bengal,Durgapur,"Mahishkapur Road_B-Zone, Durgapur - WBPCB","08-11-2025 15:00:00",23.567923,87.306843,NO2,8,44,18
India,Uttar_Pradesh,Prayagraj,"Jhunsi, Prayagraj - UPPCB","08-11-2025 15:00:00",25.425602,81.917152,PM10,62,170,110
India,Uttar_Pradesh,Prayagraj,"Motilal Nehru NIT, Prayagraj - UPPCB","08-11-2025 15:00:00",25.494,81.863,NO2,12,12,12
India,Uttar_Pradesh,Prayagraj,"Nagar Nigam, Prayagraj - UPPCB","08-11-2025 15:00:00","25.44919916 ","81.82735986 ",PM10,64,259,130
India,Uttar_Pradesh,Prayagraj,"Nagar Nigam, Prayagraj - UPPCB","08-11-2025 15:00:00","25.44919916 ","81.82735986 ",NO2,5,5,5
India,Uttar_Pradesh,Prayagraj,"Nagar Nigam, Prayagraj - UPPCB","08-11-2025 15:00:00","25.44919916 ","81.82735986 ",CO,22,78,31
India,Uttar_Pradesh,Varanasi,"Ardhali Bazar, Varanasi - UPPCB","08-11-2025 15:00:00",25.3505986,82.9083074,SO2,18,19,18
India,Uttar_Pradesh,Varanasi,"Ardhali Bazar, Varanasi - UPPCB","08-11-2025 15:00:00",25.3505986,82.9083074,CO,8,15,10
India,Uttar_Pradesh,Meerut,"Pallavpuram Phase 2, Meerut - UPPCB","08-11-2025 15:00:00",29.063510,77.709723,PM2.5,67,450,314
India,Uttar_Pradesh,Meerut,"Pallavpuram Phase 2, Meerut - UPPCB","08-11-2025 15:00:00",29.063510,77.709723,SO2,11,35,22
India,Uttar_Pradesh,Meerut,"Pallavpuram Phase 2, Meerut - UPPCB","08-11-2025 15:00:00",29.063510,77.709723,CO,4,66,28
India,Uttar_Pradesh,Moradabad,"Eco Herbal Park, Moradabad - UPPCB","08-11-2025 15:00:00",28.840739,78.697531,SO2,7,34,19
India,Uttar_Pradesh,Moradabad,"Eco Herbal Park, Moradabad - UPPCB","08-11-2025 15:00:00",28.840739,78.697531,OZONE,20,142,70
India,Uttar_Pradesh,Moradabad,"Employment Office, Moradabad - UPPCB","08-11-2025 15:00:00",28.88528,78.73880,NO2,15,16,16
India,Uttar_Pradesh,Moradabad,"Employment Office, Moradabad - UPPCB","08-11-2025 15:00:00",28.88528,78.73880,NH3,4,4,4
India,Uttar_Pradesh,Moradabad,"Jigar Colony, Moradabad - UPPCB","08-11-2025 15:00:00",28.856664,78.772638,PM2.5,77,303,170
India,Uttar_Pradesh,Moradabad,"Transport Nagar, Moradabad - UPPCB","08-11-2025 15:00:00",28.802625,78.753728,NO2,29,30,30
India,Uttar_Pradesh,Moradabad,"Transport Nagar, Moradabad - UPPCB","08-11-2025 15:00:00",28.802625,78.753728,NH3,5,6,5
India,Uttar_Pradesh,Noida,"Sector - 125, Noida - UPPCB","08-11-2025 15:00:00",28.5447608,77.3231257,PM10,154,425,286
India,Uttar_Pradesh,Noida,"Sector - 125, Noida - UPPCB","08-11-2025 15:00:00",28.5447608,77.3231257,SO2,16,31,22
India,West_Bengal,Durgapur,"Mahishkapur Road_B-Zone, Durgapur - WBPCB","08-11-2025 15:00:00",23.567923,87.306843,CO,2,40,21
India,West_Bengal,Durgapur,"PCBL Residential Complex, Durgapur - WBPCB","08-11-2025 15:00:00",23.5087640,87.3544400,PM2.5,39,86,56
India,West_Bengal,Durgapur,"Womens College_City Center, Durgapur - WBPCB (Formerly known as Sidhu Kanhu Indoor Stadium)","08-11-2025 15:00:00",23.549395,87.300496,PM10,79,111,90
India,West_Bengal,Durgapur,"Womens College_City Center, Durgapur - WBPCB (Formerly known as Sidhu Kanhu Indoor Stadium)","08-11-2025 15:00:00",23.549395,87.300496,NO2,28,33,29
India,West_Bengal,Durgapur,"Womens College_City Center, Durgapur - WBPCB (Formerly known as Sidhu Kanhu Indoor Stadium)","08-11-2025 15:00:00",23.549395,87.300496,SO2,21,63,32
India,West_Bengal,Durgapur,"Womens College_City Center, Durgapur - WBPCB (Formerly known as Sidhu Kanhu Indoor Stadium)","08-11-2025 15:00:00",23.549395,87.300496,CO,20,34,23
India,West_Bengal,Haldia,"Priyambada Housing Estate, Haldia - WBPCB","08-11-2025 15:00:00",22.06047,88.109737,NO2,12,22,16
India,West_Bengal,Haldia,"Priyambada Housing Estate, Haldia - WBPCB","08-11-2025 15:00:00",22.06047,88.109737,SO2,13,20,16
India,West_Bengal,Howrah,"Belur Math, Howrah - WBPCB","08-11-2025 15:00:00",22.629801,88.352017,PM10,101,142,122
India,West_Bengal,Howrah,"Belur Math, Howrah - WBPCB","08-11-2025 15:00:00",22.629801,88.352017,NO2,21,51,32
India,West_Bengal,Howrah,"Belur Math, Howrah - WBPCB","08-11-2025 15:00:00",22.629801,88.352017,OZONE,14,35,30
India,West_Bengal,Howrah,"Dasnagar, Howrah - WBPCB","08-11-2025 15:00:00",22.6025571,88.3105664,PM10,57,116,91
India,West_Bengal,Kolkata,"Ballygunge, Kolkata - WBPCB","08-11-2025 15:00:00",22.5367507,88.3638022,CO,13,57,13
India,West_Bengal,Kolkata,"Jadavpur, Kolkata - WBPCB","08-11-2025 15:00:00",22.49929,88.36917,PM2.5,113,273,199
India,West_Bengal,Kolkata,"Rabindra Bharati University, Kolkata - WBPCB","08-11-2025 15:00:00",22.627847,88.380669,PM10,69,106,90
India,West_Bengal,Kolkata,"Rabindra Sarobar, Kolkata - WBPCB","08-11-2025 15:00:00",22.51106,88.35142,PM10,65,105,86
India,West_Bengal,Kolkata,"Victoria, Kolkata - WBPCB","08-11-2025 15:00:00",22.5448082,88.3403691,PM2.5,98,266,181
India,West_Bengal,Siliguri,"Ward-32 Bapupara, Siliguri - WBPCB","08-11-2025 15:00:00",26.6879226,88.4152495,SO2,11,12,12
India,West_Bengal,Siliguri,"Ward-32 Bapupara, Siliguri - WBPCB","08-11-2025 15:00:00",26.6879226,88.4152495,OZONE,16,78,53
India,Andhra_Pradesh,Vijayawada,"HB Colony, Vijayawada - APPCB","08-11-2025 15:00:00",16.536107,80.594233,NO2,24,24,24
India,Andhra_Pradesh,Vijayawada,"HB Colony, Vijayawada - APPCB","08-11-2025 15:00:00",16.536107,80.594233,OZONE,18,48,43
India,Andhra_Pradesh,Vijayawada,"Rajiv Gandhi Park, Vijayawada - APPCB","08-11-2025 15:00:00",16.509717,80.612222,NO2,43,64,53
India,Andhra_Pradesh,Vijayawada,"Rajiv Gandhi Park, Vijayawada - APPCB","08-11-2025 15:00:00",16.509717,80.612222,SO2,15,18,16
India,Andhra_Pradesh,Vijayawada,"Rajiv Gandhi Park, Vijayawada - APPCB","08-11-2025 15:00:00",16.509717,80.612222,CO,34,34,34
India,Andhra_Pradesh,Vijayawada,"Rajiv Nagar, Vijayawada - APPCB","08-11-2025 15:00:00",16.554731,80.649110,NO2,NA,NA,NA
India,Andhra_Pradesh,Vijayawada,"Rajiv Nagar, Vijayawada - APPCB","08-11-2025 15:00:00",16.554731,80.649110,SO2,NA,NA,NA
India,Andhra_Pradesh,Visakhapatnam,"GVM Corporation, Visakhapatnam - APPCB","08-11-2025 15:00:00",17.72,83.3,PM10,99,431,193
India,Bihar,Araria,"Kharahiya Basti, Araria - BSPCB","08-11-2025 15:00:00",26.146529,87.454184,SO2,17,21,19
India,Bihar,Arrah,"New DM Office, Arrah - BSPCB","08-11-2025 15:00:00",25.5626095,84.663264,PM2.5,33,58,44
India,Bihar,Arrah,"New DM Office, Arrah - BSPCB","08-11-2025 15:00:00",25.5626095,84.663264,PM10,32,50,40
India,Bihar,Arrah,"New DM Office, Arrah - BSPCB","08-11-2025 15:00:00",25.5626095,84.663264,CO,38,74,56
India,Bihar,Aurangabad,"Gurdeo Nagar, Aurangabad - BSPCB","08-11-2025 15:00:00",24.75746,84.366208,NH3,1,2,1
India,Bihar,Aurangabad,"Gurdeo Nagar, Aurangabad - BSPCB","08-11-2025 15:00:00",24.75746,84.366208,CO,100,103,102
India,Bihar,Begusarai,"Lohiyanagar, Begusarai - BSPCB","08-11-2025 15:00:00",25.42742023,86.13886079,SO2,36,49,42
India,Bihar,Katihar,"Mirchaibari, Katihar - BSPCB","08-11-2025 15:00:00",25.560083,87.553265,PM10,40,84,54
India,Bihar,Manguraha,"Forest Rest House, Manguraha - BSPCB","08-11-2025 15:00:00",27.308328,84.531742,PM2.5,32,267,97
India,Bihar,Manguraha,"Forest Rest House, Manguraha - BSPCB","08-11-2025 15:00:00",27.308328,84.531742,PM10,38,203,109
India,Bihar,Manguraha,"Forest Rest House, Manguraha - BSPCB","08-11-2025 15:00:00",27.308328,84.531742,CO,31,34,34
India,Bihar,Motihari,"Gandak Colony, Motihari - BSPCB","08-11-2025 15:00:00",26.63086,84.90051,PM2.5,20,177,44
India,Bihar,Motihari,"Gandak Colony, Motihari - BSPCB","08-11-2025 15:00:00",26.63086,84.90051,PM10,68,197,94
India,Bihar,Motihari,"Gandak Colony, Motihari - BSPCB","08-11-2025 15:00:00",26.63086,84.90051,NH3,3,3,3
India,Bihar,Motihari,"Gandak Colony, Motihari - BSPCB","08-11-2025 15:00:00",26.63086,84.90051,SO2,2,3,3
India,Bihar,Bhagalpur,"DM Office_Kachari Chowk, Bhagalpur - BSPCB","08-11-2025 15:00:00",25.251013,86.989001,NO2,6,10,8
India,Bihar,Bhagalpur,"DM Office_Kachari Chowk, Bhagalpur - BSPCB","08-11-2025 15:00:00",25.251013,86.989001,CO,7,20,19
India,Bihar,Bhagalpur,"Mayaganj, Bhagalpur - BSPCB","08-11-2025 15:00:00",25.265194,87.012947,NH3,5,11,7
India,Bihar,"Bihar Sharif","D M Colony, Bihar Sharif - BSPCB","08-11-2025 15:00:00",25.204762,85.514960,PM2.5,NA,NA,NA
India,Bihar,Buxar,"Charitra Van, Buxar - BSPCB","08-11-2025 15:00:00",25.567520,83.966379,PM2.5,53,82,74
India,Bihar,Chhapra,"Darshan Nagar, Chhapra - BSPCB","08-11-2025 15:00:00",25.7808257,84.7446768,SO2,19,21,20
India,Bihar,Chhapra,"Darshan Nagar, Chhapra - BSPCB","08-11-2025 15:00:00",25.7808257,84.7446768,OZONE,17,35,22
India,Bihar,Gaya,"Collectorate, Gaya - BSPCB","08-11-2025 15:00:00",24.7955,84.9994,PM2.5,58,252,141
India,Bihar,Gaya,"Collectorate, Gaya - BSPCB","08-11-2025 15:00:00",24.7955,84.9994,SO2,10,17,11
India,Bihar,Gaya,"Collectorate, Gaya - BSPCB","08-11-2025 15:00:00",24.7955,84.9994,CO,44,81,44
India,Bihar,Gaya,"Kareemganj, Gaya - BSPCB","08-11-2025 15:00:00",24.792403,84.992416,PM2.5,43,317,120
India,Bihar,Gaya,"SFTI Kusdihra, Gaya - BSPCB","08-11-2025 15:00:00",24.762518,84.982348,OZONE,12,36,24
India,Assam,Byrnihat,"Central Academy for SFS, Byrnihat - PCBA","08-11-2025 15:00:00",26.071318,91.87488,OZONE,20,37,27
India,Assam,Guwahati,"IITG, Guwahati - PCBA","08-11-2025 15:00:00",26.2028636,91.70046436,PM2.5,17,234,60
India,Assam,Guwahati,"LGBI Airport, Guwahati - PCBA","08-11-2025 15:00:00",26.10887,91.589544,PM10,38,89,67
India,Assam,Guwahati,"Pan Bazaar, Guwahati - PCBA","08-11-2025 15:00:00",26.187500,91.744194,SO2,43,81,60
India,Assam,Guwahati,"Railway Colony, Guwahati - PCBA","08-11-2025 15:00:00",26.181742,91.78063,PM10,24,118,68
India,Andhra_Pradesh,Kadapa,"Yerramukkapalli, Kadapa - APPCB","08-11-2025 15:00:00",14.465052,78.824187,PM2.5,NA,NA,NA
India,Andhra_Pradesh,Rajamahendravaram,"Anand Kala Kshetram, Rajamahendravaram - APPCB","08-11-2025 15:00:00",16.9872867,81.7363176,CO,26,30,28
India,Andhra_Pradesh,Tirumala,"Toll Gate, Tirumala - APPCB","08-11-2025 15:00:00",13.67,79.35,NH3,1,2,1
India,Andhra_Pradesh,Tirupati,"Vaikuntapuram, Tirupati - APPCB","08-11-2025 15:00:00",13.615387,79.409230,NH3,2,7,4
India,Assam,Nagaon,"Christianpatty, Nagaon - PCBA","08-11-2025 15:00:00",26.349082,92.68449,PM10,NA,NA,NA
India,Assam,Nagaon,"Christianpatty, Nagaon - PCBA","08-11-2025 15:00:00",26.349082,92.68449,SO2,10,14,12
India,Assam,Nagaon,"Christianpatty, Nagaon - PCBA","08-11-2025 15:00:00",26.349082,92.68449,OZONE,9,9,9
India,Assam,Silchar,"Tarapur, Silchar - PCBA","08-11-2025 15:00:00",24.82827,92.79525,PM2.5,36,50,41
India,Assam,Silchar,"Tarapur, Silchar - PCBA","08-11-2025 15:00:00",24.82827,92.79525,NO2,14,18,18
India,"Andaman and Nicobar","Sri Vijaya Puram","Police Line, Sri Vijaya Puram - ANPCC","08-11-2025 15:00:00",11.654054,92.734055,PM2.5,NA,NA,NA
India,"Andaman and Nicobar","Sri Vijaya Puram","Police Line, Sri Vijaya Puram - ANPCC","08-11-2025 15:00:00",11.654054,92.734055,SO2,NA,NA,NA
India,Andhra_Pradesh,Chittoor,"Gangineni Cheruvu, Chittoor - APPCB","08-11-2025 15:00:00",13.204880,79.097889,PM2.5,NA,NA,NA
India,Andhra_Pradesh,Chittoor,"Gangineni Cheruvu, Chittoor - APPCB","08-11-2025 15:00:00",13.204880,79.097889,PM10,NA,NA,NA
India,Bihar,Munger,"Town Hall, Munger - BSPCB","08-11-2025 15:00:00",25.376776,86.471523,PM10,55,94,75
India,Bihar,Patna,"DRM Office Danapur, Patna - BSPCB","08-11-2025 15:00:00",25.586562,85.043586,NH3,6,8,7
India,Bihar,Patna,"DRM Office Danapur, Patna - BSPCB","08-11-2025 15:00:00",25.586562,85.043586,SO2,8,10,9
India,Bihar,Patna,"DRM Office Danapur, Patna - BSPCB","08-11-2025 15:00:00",25.586562,85.043586,CO,28,56,50
India,Bihar,Patna,"Govt. High School Shikarpur, Patna - BSPCB","08-11-2025 15:00:00",25.592539,85.227158,PM10,69,107,91
India,Bihar,Patna,"Govt. High School Shikarpur, Patna - BSPCB","08-11-2025 15:00:00",25.592539,85.227158,NO2,9,16,13
India,Bihar,Patna,"Govt. High School Shikarpur, Patna - BSPCB","08-11-2025 15:00:00",25.592539,85.227158,SO2,9,59,12
India,Bihar,Patna,"IGSC Planetarium Complex, Patna - BSPCB","08-11-2025 15:00:00",25.610369,85.132568,SO2,20,27,23
India,Bihar,Patna,"Rajbansi Nagar, Patna - BSPCB","08-11-2025 15:00:00",25.599486,85.113666,NO2,31,92,49
India,Bihar,Patna,"Rajbansi Nagar, Patna - BSPCB","08-11-2025 15:00:00",25.599486,85.113666,CO,16,64,26
India,Chandigarh,Chandigarh,"Sector-53, Chandigarh - CPCC","08-11-2025 15:00:00",30.719859,76.738637,NO2,16,166,62
India,Chhattisgarh,Bhilai,"32Bungalows, Bhilai - CECB","08-11-2025 15:00:00",21.194815,81.314770,NH3,5,5,5
India,Chhattisgarh,Bhilai,"Civic Center, Bhilai - Bhilai Steel Plant","08-11-2025 15:00:00",21.185571,81.343175,PM10,30,158,54
India,Chhattisgarh,Bhilai,"Civic Center, Bhilai - Bhilai Steel Plant","08-11-2025 15:00:00",21.185571,81.343175,NH3,3,3,3
India,Chhattisgarh,Bhilai,"Hathkhoj, Bhilai - CECB","08-11-2025 15:00:00",21.224231,81.408350,PM10,29,96,57
India,Chhattisgarh,Bhilai,"Hathkhoj, Bhilai - CECB","08-11-2025 15:00:00",21.224231,81.408350,CO,4,48,18
India,Chhattisgarh,Bhilai,"Hathkhoj, Bhilai - CECB","08-11-2025 15:00:00",21.224231,81.408350,OZONE,15,56,43
India,Chhattisgarh,Raipur,"Krishak Nagar, Raipur - CECB","08-11-2025 15:00:00",21.237755,81.705301,NH3,2,3,2
India,Chhattisgarh,Raipur,"Siltara Phase-II, Raipur - CECB","08-11-2025 15:00:00",21.371751,81.664929,PM10,43,153,96
India,Chhattisgarh,Raipur,"Siltara Phase-II, Raipur - CECB","08-11-2025 15:00:00",21.371751,81.664929,CO,34,36,35
India,Chhattisgarh,Raipur,"Siltara Phase-II, Raipur - CECB","08-11-2025 15:00:00",21.371751,81.664929,OZONE,3,10,7
India,Chhattisgarh,Tumidih,"OP Jindal Industrial Park, Tumidih - CECB","08-11-2025 15:00:00",22.06631475,83.33820077,PM2.5,29,57,42
India,Delhi,Delhi,"Anand Vihar, Delhi - DPCC","08-11-2025 15:00:00",28.647622,77.3158090,NH3,9,11,10
India,Bihar,Patna,"Samanpura, Patna - BSPCB","08-11-2025 15:00:00",25.596727,85.085624,NO2,37,49,44
India,Bihar,Purnia,"Mariam Nagar, Purnia - BSPCB","08-11-2025 15:00:00",25.366336,87.117468,PM10,46,87,70
India,Bihar,Purnia,"Mariam Nagar, Purnia - BSPCB","08-11-2025 15:00:00",25.366336,87.117468,NO2,5,6,6
India,Bihar,Purnia,"Mariam Nagar, Purnia - BSPCB","08-11-2025 15:00:00",25.366336,87.117468,SO2,16,17,17
India,Bihar,Rajgir,"Dangi Tola, Rajgir - BSPCB","08-11-2025 15:00:00",25.03280,85.41948,NH3,6,7,6
India,Bihar,Saharsa,"Police Line, Saharsa - BSPCB","08-11-2025 15:00:00",25.892357,86.590325,PM10,12,73,40
India,Bihar,Saharsa,"Police Line, Saharsa - BSPCB","08-11-2025 15:00:00",25.892357,86.590325,NO2,6,7,7
India,Bihar,Siwan,"Chitragupta Nagar, Siwan - BSPCB","08-11-2025 15:00:00",26.2271665,84.3570427,NH3,1,1,1
India,Bihar,Siwan,"Chitragupta Nagar, Siwan - BSPCB","08-11-2025 15:00:00",26.2271665,84.3570427,SO2,8,8,8
India,Bihar,Siwan,"Chitragupta Nagar, Siwan - BSPCB","08-11-2025 15:00:00",26.2271665,84.3570427,OZONE,13,14,14
India,Chandigarh,Chandigarh,"Sector 22, Chandigarh - CPCC","08-11-2025 15:00:00",30.735567,76.775714,PM10,72,154,104
India,Chandigarh,Chandigarh,"Sector-25, Chandigarh - CPCC","08-11-2025 15:00:00",30.751462,76.762879,NH3,9,19,12
India,Chandigarh,Chandigarh,"Sector-25, Chandigarh - CPCC","08-11-2025 15:00:00",30.751462,76.762879,SO2,5,12,8
India,Delhi,Delhi,"Anand Vihar, Delhi - DPCC","08-11-2025 15:00:00",28.647622,77.3158090,OZONE,20,90,74
India,Delhi,Delhi,"Ashok Vihar, Delhi - DPCC","08-11-2025 15:00:00",28.695381,77.181665,NO2,33,142,81
India,Delhi,Delhi,"Aya Nagar, Delhi - IMD","08-11-2025 15:00:00",28.4706914,77.1099364,NO2,16,53,33
India,Delhi,Delhi,"Bawana, Delhi - DPCC","08-11-2025 15:00:00",28.776200,77.051074,PM10,159,460,344
India,Delhi,Delhi,"Bawana, Delhi - DPCC","08-11-2025 15:00:00",28.776200,77.051074,NH3,5,7,6
India,Chhattisgarh,Kunjemura,"OP Jindal School, Kunjemura - CECB","08-11-2025 15:00:00",22.126650,83.483212,OZONE,5,40,25
India,Chhattisgarh,Milupara,"Govt. Higher Secondary School, Milupara - CECB","08-11-2025 15:00:00",22.1910172,83.5197009,NH3,1,2,2
India,Chhattisgarh,Raipur,"AIIMS, Raipur - CECB","08-11-2025 15:00:00",21.258815,81.578979,CO,27,60,34
India,Chhattisgarh,Raipur,"AIIMS, Raipur - CECB","08-11-2025 15:00:00",21.258815,81.578979,OZONE,5,12,8
India,Chhattisgarh,Bilaspur,"Mangala, Bilaspur - NTPC","08-11-2025 15:00:00",22.08815,82.13737,PM10,49,103,78
India,Chhattisgarh,Chhal,"Nawapara SECL Colony, Chhal - CECB","08-11-2025 15:00:00",22.118125,83.140608,OZONE,13,181,98
India,Chhattisgarh,Korba,"Urja Nagar, Korba - CECB","08-11-2025 15:00:00",22.348441,82.549611,CO,12,24,21
India,Delhi,Delhi,"CRRI Mathura Road, Delhi - IMD","08-11-2025 15:00:00",28.5512005,77.2735737,NO2,45,143,66
India,Delhi,Delhi,"Chandni Chowk, Delhi - IITM","08-11-2025 15:00:00",28.656756,77.227234,NO2,26,63,43
India,Delhi,Delhi,"R K Puram, Delhi - DPCC","08-11-2025 15:00:00",28.563262,77.186937,SO2,16,41,28
India,Delhi,Delhi,"Shadipur, Delhi - CPCB","08-11-2025 15:00:00",28.6514781,77.1473105,PM2.5,176,277,200
India,Delhi,Delhi,"Shadipur, Delhi - CPCB","08-11-2025 15:00:00",28.6514781,77.1473105,NO2,49,180,83
India,Delhi,Delhi,"Shadipur, Delhi - CPCB","08-11-2025 15:00:00",28.6514781,77.1473105,CO,34,112,65
India,Delhi,Delhi,"Sirifort, Delhi - CPCB","08-11-2025 15:00:00",28.5504249,77.2159377,PM2.5,223,488,363
India,Delhi,Delhi,"Sirifort, Delhi - CPCB","08-11-2025 15:00:00",28.5504249,77.2159377,PM10,163,442,319
India,Delhi,Delhi,"Sonia Vihar, Delhi - DPCC","08-11-2025 15:00:00",28.710508,77.249485,PM10,144,500,336
India,Delhi,Delhi,"Dwarka-Sector 8, Delhi - DPCC ","08-11-2025 15:00:00",28.5710274,77.0719006,CO,37,126,63
India,Delhi,Delhi,"Dwarka-Sector 8, Delhi - DPCC ","08-11-2025 15:00:00",28.5710274,77.0719006,OZONE,2,174,174
India,Delhi,Delhi,"IGI Airport (T3), Delhi - IMD","08-11-2025 15:00:00",28.5627763,77.1180053,NO2,91,210,156
India,Delhi,Delhi,"IHBAS, Dilshad Garden, Delhi - CPCB","08-11-2025 15:00:00",28.6811736,77.3025234,PM2.5,85,285,153
India,Delhi,Delhi,"IHBAS, Dilshad Garden, Delhi - CPCB","08-11-2025 15:00:00",28.6811736,77.3025234,OZONE,2,64,39
India,Delhi,Delhi,"ITO, Delhi - CPCB","08-11-2025 15:00:00",28.628624,77.241060,SO2,7,19,14
India,Delhi,Delhi,"Vivek Vihar, Delhi - DPCC","08-11-2025 15:00:00",28.672342,77.315260,PM10,187,500,351
India,Delhi,Delhi,"Vivek Vihar, Delhi - DPCC","08-11-2025 15:00:00",28.672342,77.315260,NO2,37,145,82
India,Delhi,Delhi,"Vivek Vihar, Delhi - DPCC","08-11-2025 15:00:00",28.672342,77.315260,CO,65,109,86
India,Delhi,Delhi,"Wazirpur, Delhi - DPCC","08-11-2025 15:00:00",28.699793,77.165453,PM10,194,500,410
India,Gujarat,Ahmedabad,"Chandkheda, Ahmedabad - IITM","08-11-2025 15:00:00",23.107969,72.574648,PM2.5,33,160,83
India,Gujarat,Ahmedabad,"Chandkheda, Ahmedabad - IITM","08-11-2025 15:00:00",23.107969,72.574648,NH3,3,32,13
India,Delhi,Delhi,"Patparganj, Delhi - DPCC","08-11-2025 15:00:00",28.623763,77.287209,SO2,7,10,8
India,Delhi,Delhi,"Punjabi Bagh, Delhi - DPCC","08-11-2025 15:00:00",28.674045,77.131023,PM2.5,187,500,393
India,Delhi,Delhi,"Punjabi Bagh, Delhi - DPCC","08-11-2025 15:00:00",28.674045,77.131023,NH3,4,5,4
India,Delhi,Delhi,"Punjabi Bagh, Delhi - DPCC","08-11-2025 15:00:00",28.674045,77.131023,SO2,1,34,9
India,Delhi,Delhi,"Punjabi Bagh, Delhi - DPCC","08-11-2025 15:00:00",28.674045,77.131023,CO,37,108,52
India,Delhi,Delhi,"R K Puram, Delhi - DPCC","08-11-2025 15:00:00",28.563262,77.186937,PM2.5,193,481,354
India,Delhi,Delhi,"R K Puram, Delhi - DPCC","08-11-2025 15:00:00",28.563262,77.186937,NH3,4,6,4
India,Gujarat,Ahmedabad,"SAC ISRO Satellite, Ahmedabad - IITM","08-11-2025 15:00:00",23.023389,72.515201,PM2.5,59,232,120
India,Gujarat,Ahmedabad,"SAC ISRO Satellite, Ahmedabad - IITM","08-11-2025 15:00:00",23.023389,72.515201,NH3,3,19,9
India,Gujarat,Ankleshwar,"GIDC, Ankleshwar - GPCB","08-11-2025 15:00:00",21.613267,73.010555,PM2.5,69,215,131
India,Gujarat,Ankleshwar,"GIDC, Ankleshwar - GPCB","08-11-2025 15:00:00",21.613267,73.010555,NO2,23,24,24
India,Gujarat,Ankleshwar,"GIDC, Ankleshwar - GPCB","08-11-2025 15:00:00",21.613267,73.010555,NH3,4,4,4
India,Gujarat,Ankleshwar,"GIDC, Ankleshwar - GPCB","08-11-2025 15:00:00",21.613267,73.010555,CO,82,121,109
India,Delhi,Delhi,"Major Dhyan Chand National Stadium, Delhi - DPCC","08-11-2025 15:00:00",28.611281,77.237738,OZONE,2,190,190
India,Delhi,Delhi,"Mandir Marg, Delhi - DPCC","08-11-2025 15:00:00",28.636429,77.201067,OZONE,6,132,67
India,Delhi,Delhi,"Najafgarh, Delhi - DPCC","08-11-2025 15:00:00",28.570173,76.933762,PM10,119,420,200
India,Delhi,Delhi,"Narela, Delhi - DPCC","08-11-2025 15:00:00",28.822836,77.101981,PM2.5,142,500,389
India,Delhi,Delhi,"Jahangirpuri, Delhi - DPCC","08-11-2025 15:00:00",28.732820,77.170633,CO,61,126,106
India,Delhi,Delhi,"Jahangirpuri, Delhi - DPCC","08-11-2025 15:00:00",28.732820,77.170633,OZONE,4,282,247
India,Delhi,Delhi,"Jawaharlal Nehru Stadium, Delhi - DPCC","08-11-2025 15:00:00",28.580280,77.233829,SO2,14,40,23
India,Delhi,Delhi,"Lodhi Road, Delhi - IMD","08-11-2025 15:00:00",28.5918245,77.2273074,CO,20,72,36
India,Delhi,Delhi,"Narela, Delhi - DPCC","08-11-2025 15:00:00",28.822836,77.101981,OZONE,1,171,171
India,Delhi,Delhi,"Nehru Nagar, Delhi - DPCC","08-11-2025 15:00:00",28.567890,77.250515,NH3,6,11,9
India,Delhi,Delhi,"Nehru Nagar, Delhi - DPCC","08-11-2025 15:00:00",28.567890,77.250515,CO,54,124,91
India,Delhi,Delhi,"North Campus, DU, Delhi - IMD","08-11-2025 15:00:00",28.6573814,77.1585447,CO,20,109,71
India,Gujarat,Ahmedabad,"Gyaspur, Ahmedabad - IITM","08-11-2025 15:00:00",22.977134,72.553024,CO,20,91,51
India,Gujarat,Ahmedabad,"Raikhad, Ahmedabad - IITM","08-11-2025 15:00:00",23.020509,72.579261,NO2,30,171,97
India,Gujarat,Ahmedabad,"Raikhad, Ahmedabad - IITM","08-11-2025 15:00:00",23.020509,72.579261,NH3,5,24,15
India,Haryana,Jind,"Police Lines, Jind - HSPCB","08-11-2025 15:00:00",29.307814,76.337619,SO2,28,29,28
India,Haryana,Jind,"Police Lines, Jind - HSPCB","08-11-2025 15:00:00",29.307814,76.337619,CO,1,130,35
India,Haryana,Jind,"Police Lines, Jind - HSPCB","08-11-2025 15:00:00",29.307814,76.337619,OZONE,1,3,1
India,Haryana,Kaithal,"Rishi Nagar, Kaithal - HSPCB","08-11-2025 15:00:00",29.8006,76.4155,PM2.5,79,397,289
India,Haryana,Kaithal,"Rishi Nagar, Kaithal - HSPCB","08-11-2025 15:00:00",29.8006,76.4155,NH3,2,6,5
India,Haryana,Kaithal,"Rishi Nagar, Kaithal - HSPCB","08-11-2025 15:00:00",29.8006,76.4155,SO2,27,35,31
India,Haryana,Karnal,"Sector-12, Karnal - HSPCB","08-11-2025 15:00:00",29.695300,77.002700,OZONE,26,27,26
India,Haryana,Kurukshetra,"Sector-7, Kurukshetra - HSPCB","08-11-2025 15:00:00",29.966942,76.875879,PM2.5,67,364,264
India,Haryana,Kurukshetra,"Sector-7, Kurukshetra - HSPCB","08-11-2025 15:00:00",29.966942,76.875879,SO2,10,18,14
India,Haryana,Panchgaon,"Amity University, Panchgaon - IITM","08-11-2025 15:00:00",28.3153,76.9143,PM10,65,359,99
India,Haryana,Panchgaon,"Amity University, Panchgaon - IITM","08-11-2025 15:00:00",28.3153,76.9143,OZONE,1,118,52
India,Haryana,Panipat,"Sector-18, Panipat - HSPCB","08-11-2025 15:00:00",29.432304,76.972765,PM2.5,24,500,271
India,Haryana,Panipat,"Sector-18, Panipat - HSPCB","08-11-2025 15:00:00",29.432304,76.972765,NO2,31,32,31
India,Haryana,Panipat,"Sector-18, Panipat - HSPCB","08-11-2025 15:00:00",29.432304,76.972765,NH3,2,3,3
India,Haryana,Rohtak,"MD University, Rohtak - HSPCB","08-11-2025 15:00:00",28.52123,76.37138,CO,43,69,65
India,Haryana,Gurugram,"Sector-51, Gurugram - HSPCB","08-11-2025 15:00:00",28.4227,77.0667,PM2.5,158,354,278
India,Haryana,Gurugram,"Sector-51, Gurugram - HSPCB","08-11-2025 15:00:00",28.4227,77.0667,NO2,4,10,6
India,Haryana,Gurugram,"Sector-51, Gurugram - HSPCB","08-11-2025 15:00:00",28.4227,77.0667,SO2,5,17,11
India,Haryana,Gurugram,"Teri Gram, Gurugram - HSPCB","08-11-2025 15:00:00",28.4275,77.1465,PM10,102,201,145
India,Haryana,Gurugram,"Teri Gram, Gurugram - HSPCB","08-11-2025 15:00:00",28.4275,77.1465,SO2,NA,NA,NA
India,Haryana,Hisar,"Urban Estate-II, Hisar - HSPCB","08-11-2025 15:00:00",29.140560,75.744941,NH3,4,5,5
India,Gujarat,Surat,"Science Center, Surat - SMC","08-11-2025 15:00:00",21.170046,72.795405,SO2,28,35,32
India,Gujarat,Vapi,"Phase-1 GIDC, Vapi - GPCB","08-11-2025 15:00:00",20.362421,72.918013,NO2,1,2,1
India,Gujarat,Vatva,"Phase-4 GIDC, Vatva - GPCB","08-11-2025 15:00:00",22.969611,72.643500,CO,10,48,15
India,Haryana,Ambala,"Patti Mehar, Ambala - HSPCB","08-11-2025 15:00:00",30.379589,76.778328,NO2,20,25,22
India,Gujarat,Gandhinagar,"GIFT City, Gandhinagar - IITM","08-11-2025 15:00:00",23.163798,72.677768,PM2.5,55,182,113
India,Gujarat,Gandhinagar,"GIFT City, Gandhinagar - IITM","08-11-2025 15:00:00",23.163798,72.677768,PM10,107,272,174
India,Gujarat,Gandhinagar,"GIFT City, Gandhinagar - IITM","08-11-2025 15:00:00",23.163798,72.677768,NO2,11,84,43
